
$GPGSV,3,1,12,13,81,259,16,28,58,097,35,15,48,290,34,20,41,259,15*7C
$GPGSV,3,2,12,30,40,075,23,05,27,202,,18,13,324,,08,12,025,40*79
$GPGSV,3,3,12,07,09,075,43,24,09,256,20,21,07,301,,17,03,131,39*77
$GPRMC,212747.000,A,5454.0705,N,00948.5455,E,0.03,309.58,061017,,,A*68
$GPVTG,309.58,T,,M,0.03,N,0.06,K,A*3F
$GPGGA,212748.000,5454.0705,N,00948.5455,E,1,5,2.71,1.8,M,44.6,M,,*5E
$GPGLL,5454.0705,N,00948.5455,E,212748.000,A,A*55
$GPGSA,A,3,08,30,07,28,15,,,,,,,,4.10,2.71,3.08*0A
$GPGSV,3,1,12,13,81,259,16,28,58,097,35,15,48,290,34,20,41,259,16*7F
$GPGSV,3,2,12,30,40,075,22,05,27,202,,18,13,324,,08,12,025,40*78
$GPGSV,3,3,12,07,09,075,43,24,09,256,19,21,07,301,,17,03,131,39*7D
$GPRMC,212748.000,A,5454.0705,N,00948.5455,E,0.04,289.25,061017,,,A*63
$GPVTG,289.25,T,,M,0.04,N,0.07,K,A*3A
$GPGGA,212749.000,5454.0705,N,00948.5455,E,1,5,2.71,1.8,M,44.6,M,,*5F
$GPGLL,5454.0705,N,00948.5455,E,212749.000,A,A*54
$GPGSA,A,3,08,30,07,28,15,,,,,,,,4.10,2.71,3.08*0A
$GPGSV,3,1,12,13,81,259,16,28,58,097,35,15,48,290,34,20,41,259,17*7E
$GPGSV,3,2,12,30,40,075,22,05,27,202,,18,13,324,,08,12,025,40*78
$GPGSV,3,3,12,07,09,075,43,24,09,256,19,21,07,301,,17,03,131,39*7D
$GPRMC,212749.000,A,5454.0705,N,00948.5455,E,0.02,176.20,061017,,,A*62
$GPVTG,176.20,T,,M,0.02,N,0.04,K,A*39
$GPGGA,212750.000,5454.0705,N,00948.5455,E,1,5,2.71,1.8,M,44.6,M,,*57
$GPGLL,5454.0705,N,00948.5455,E,212750.000,A,A*5C
$GPGSA,A,3,08,30,07,28,15,,,,,,,,4.10,2.71,3.08*0A
$GPGSV,3,1,12,13,82,258,16,28,58,097,35,15,48,290,34,20,41,259,17*7C
$GPGSV,3,2,12,30,40,075,25,05,27,202,,18,13,324,,08,12,025,40*7F
$GPGSV,3,3,12,07,09,075,43,24,09,256,19,21,07,301,,17,03,131,39*7D
$GPRMC,212750.000,A,5454.0705,N,00948.5455,E,0.03,254.66,061017,,,A*6A
$GPVTG,254.66,T,,M,0.03,N,0.05,K,A*38
$GPGGA,212751.000,5454.0705,N,00948.5455,E,1,5,2.71,1.8,M,44.6,M,,*56
$GPGLL,5454.0705,N,00948.5455,E,212751.000,A,A*5D
$GPGSA,A,3,08,30,07,28,15,,,,,,,,4.10,2.71,3.07*05
$GPGSV,3,1,12,13,82,258,16,28,58,097,35,15,48,290,34,20,41,259,18*73
$GPGSV,3,2,12,30,40,075,28,05,27,202,,18,13,324,,08,12,025,40*72
$GPGSV,3,3,12,07,09,075,43,24,09,256,19,21,07,301,,17,03,131,39*7D
$GPRMC,212751.000,A,5454.0705,N,00948.5455,E,0.02,241.44,061017,,,A*6E
$GPVTG,241.44,T,,M,0.02,N,0.03,K,A*3B
$GPGGA,212752.000,5454.0705,N,00948.5455,E,1,5,2.71,1.8,M,44.6,M,,*55
$GPGLL,5454.0705,N,00948.5455,E,212752.000,A,A*5E
$GPGSA,A,3,08,30,07,28,15,,,,,,,,4.10,2.71,3.07*05
$GPGSV,3,1,12,13,82,258,16,28,58,097,35,15,48,290,34,20,41,259,18*73
$GPGSV,3,2,12,30,40,075,29,05,27,202,,18,13,324,,08,12,025,40*73
$GPGSV,3,3,12,07,09,075,43,24,09,256,20,21,07,301,,17,03,131,39*77
$GPRMC,212752.000,A,5454.0705,N,00948.5455,E,0.03,280.21,061017,,,A*62
$GPVTG,280.21,T,,M,0.03,N,0.05,K,A*32
$GPGGA,212753.000,5454.0705,N,00948.5455,E,1,5,2.71,1.8,M,44.6,M,,*54
$GPGLL,5454.0705,N,00948.5455,E,212753.000,A,A*5F
$GPGSA,A,3,08,30,07,28,15,,,,,,,,4.10,2.71,3.07*05
$GPGSV,3,1,12,13,82,258,16,28,58,097,35,15,48,290,34,20,41,259,18*73
$GPGSV,3,2,12,30,40,075,30,05,27,202,,18,13,324,,08,12,025,41*7A
$GPGSV,3,3,12,07,09,075,43,24,09,256,20,21,07,301,,17,03,131,39*77
$GPRMC,212753.000,A,5454.0705,N,00948.5455,E,0.03,332.63,061017,,,A*6D
$GPVTG,332.63,T,,M,0.03,N,0.06,K,A*3F
$GPGGA,212754.000,5454.0705,N,00948.5455,E,1,5,2.71,1.8,M,44.6,M,,*53
$GPGLL,5454.0705,N,00948.5455,E,212754.000,A,A*58
$GPGSA,A,3,08,30,07,28,15,,,,,,,,4.10,2.71,3.07*05
$GPGSV,3,1,12,13,82,258,16,28,58,097,35,15,48,290,34,20,41,259,18*73
$GPGSV,3,2,12,30,40,075,31,05,27,202,,18,13,324,,08,12,025,41*7B
$GPGSV,3,3,12,07,09,075,43,24,09,256,20,21,07,301,,17,03,131,39*77
$GPRMC,212754.000,A,5454.0705,N,00948.5455,E,0.01,218.06,061017,,,A*62
$GPVTG,218.06,T,,M,0.01,N,0.02,K,A*33
$GPGGA,212755.000,5454.0705,N,00948.5455,E,1,5,2.71,1.8,M,44.6,M,,*52
$GPGLL,5454.0705,N,00948.5455,E,212755.000,A,A*59
$GPGSA,A,3,08,30,07,28,15,,,,,,,,4.10,2.71,3.07*05
$GPGSV,3,1,12,13,82,258,16,28,58,097,35,15,48,290,34,20,41,259,18*73
$GPGSV,3,2,12,30,40,075,29,05,27,202,,18,13,324,,08,12,025,41*72
$GPGSV,3,3,12,07,09,075,43,24,09,256,20,21,07,301,,17,03,131,39*77
$GPRMC,212755.000,A,5454.0705,N,00948.5455,E,0.02,168.34,061017,,,A*65
$GPVTG,168.34,T,,M,0.02,N,0.03,K,A*34
$GPGGA,212756.000,5454.0705,N,00948.5455,E,1,5,2.71,1.8,M,44.6,M,,*51
$GPGLL,5454.0705,N,00948.5455,E,212756.000,A,A*5A
$GPGSA,A,3,08,30,07,28,15,,,,,,,,4.10,2.71,3.07*05
$GPGSV,3,1,12,13,82,258,15,28,58,097,34,15,48,290,35,20,41,259,18*70
$GPGSV,3,2,12,30,40,075,29,05,27,202,,18,13,324,,08,12,025,41*72
$GPGSV,3,3,12,07,09,075,43,24,09,256,20,21,07,301,,17,03,131,39*77
$GPRMC,212756.000,A,5454.0705,N,00948.5455,E,0.02,243.43,061017,,,A*6C
$GPVTG,243.43,T,,M,0.02,N,0.04,K,A*39
$GPGGA,212757.000,5454.0705,N,00948.5455,E,1,5,2.71,1.8,M,44.6,M,,*50
$GPGLL,5454.0705,N,00948.5455,E,212757.000,A,A*5B
$GPGSA,A,3,08,30,07,28,15,,,,,,,,4.10,2.71,3.07*05
$GPGSV,3,1,12,13,82,258,14,28,58,097,34,15,48,290,35,20,41,258,19*71
$GPGSV,3,2,12,30,40,075,28,05,27,202,,18,13,324,,08,12,025,41*73
$GPGSV,3,3,12,07,09,075,43,24,09,256,20,21,07,301,,17,03,131,39*77
$GPRMC,212757.000,A,5454.0705,N,00948.5455,E,0.01,168.27,061017,,,A*66
$GPVTG,168.27,T,,M,0.01,N,0.03,K,A*35
$GPGGA,212758.000,5454.0705,N,00948.5455,E,1,5,2.71,1.8,M,44.6,M,,*5F
$GPGLL,5454.0705,N,00948.5455,E,212758.000,A,A*54
$GPGSA,A,3,08,30,07,28,15,,,,,,,,4.09,2.71,3.07*0D
$GPGSV,3,1,12,13,82,258,14,28,58,097,34,15,48,290,35,20,41,258,19*71
$GPGSV,3,2,12,30,40,075,28,05,27,202,,18,13,324,,08,12,025,41*73
$GPGSV,3,3,12,07,09,075,43,24,09,256,19,21,07,300,,17,03,131,39*7C
$GPRMC,212758.000,A,5454.0705,N,00948.5455,E,0.03,236.84,061017,,,A*6A
$GPVTG,236.84,T,,M,0.03,N,0.06,K,A*33
$GPGGA,212759.000,5454.0705,N,00948.5455,E,1,5,2.71,1.8,M,44.6,M,,*5E
$GPGLL,5454.0705,N,00948.5455,E,212759.000,A,A*55
$GPGSA,A,3,08,30,07,28,15,,,,,,,,4.09,2.71,3.07*0D
$GPGSV,3,1,12,13,82,258,14,28,58,097,34,15,48,290,35,20,41,258,19*71
$GPGSV,3,2,12,30,40,075,28,05,27,202,,18,13,324,,08,12,025,41*73
$GPGSV,3,3,12,07,09,075,43,24,09,256,18,21,07,300,,17,03,131,39*7D
$GPRMC,212759.000,A,5454.0705,N,00948.5455,E,0.03,230.11,061017,,,A*61
$GPVTG,230.11,T,,M,0.03,N,0.05,K,A*3A
$GPGGA,212800.000,5454.0705,N,00948.5455,E,1,5,2.71,1.8,M,44.6,M,,*5D
$GPGLL,5454.0705,N,00948.5455,E,212800.000,A,A*56
$GPGSA,A,3,08,30,07,28,15,,,,,,,,4.09,2.71,3.07*0D
$GPGSV,3,1,12,13,82,258,14,28,58,097,34,15,48,290,35,20,41,258,19*71
$GPGSV,3,2,12,30,40,075,28,05,27,202,,18,13,324,,08,12,025,41*73
$GPGSV,3,3,12,07,09,075,43,24,09,256,17,21,07,300,,17,03,131,39*72
$GPRMC,212800.000,A,5454.0705,N,00948.5455,E,0.02,41.89,061017,,,A*56
$GPVTG,41.89,T,,M,0.02,N,0.03,K,A*08
$GPGGA,212801.000,5454.0705,N,00948.5455,E,1,5,2.71,1.8,M,44.6,M,,*5C
$GPGLL,5454.0705,N,00948.5455,E,212801.000,A,A*57
$GPGSA,A,3,08,30,07,28,15,,,,,,,,4.10,2.71,3.07*05
$GPGSV,3,1,12,13,82,258,15,28,58,097,34,15,48,290,35,20,41,258,19*70
$GPGSV,3,2,12,30,40,075,28,05,27,202,,18,13,324,,08,12,025,41*73
$GPGSV,3,3,12,07,09,075,43,24,09,256,18,21,07,300,,17,03,131,39*7D
$GPRMC,212801.000,A,5454.0705,N,00948.5455,E,0.04,208.84,061017,,,A*63
$GPVTG,208.84,T,,M,0.04,N,0.07,K,A*38
$GPGGA,212802.000,5454.0705,N,00948.5455,E,1,5,2.71,1.8,M,44.6,M,,*5F
$GPGLL,5454.0705,N,00948.5455,E,212802.000,A,A*54
$GPGSA,A,3,08,30,07,28,15,,,,,,,,4.09,2.71,3.07*0D
$GPGSV,3,1,12,13,82,258,16,28,58,097,34,15,48,290,35,20,41,258,19*73
$GPGSV,3,2,12,30,40,075,28,05,27,202,,18,13,324,,08,12,025,41*73
$GPGSV,3,3,12,07,09,075,44,24,09,256,17,21,07,300,,17,03,131,39*75
$GPRMC,212802.000,A,5454.0705,N,00948.5455,E,0.04,166.99,061017,,,A*67
$GPVTG,166.99,T,,M,0.04,N,0.08,K,A*30
$GPGGA,212803.000,5454.0705,N,00948.5455,E,1,5,2.70,1.8,M,44.6,M,,*5F
$GPGLL,5454.0705,N,00948.5455,E,212803.000,A,A*55
$GPGSA,A,3,08,30,07,28,15,,,,,,,,4.09,2.70,3.07*0C
$GPGSV,3,1,12,13,82,258,17,28,58,097,35,15,48,290,35,20,41,258,19*73
$GPGSV,3,2,12,30,40,075,29,05,27,202,,18,13,324,,08,12,025,41*72
$GPGSV,3,3,12,07,09,075,44,24,09,256,,21,07,300,,17,03,131,39*73
$GPRMC,212803.000,A,5454.0705,N,00948.5455,E,0.04,225.57,061017,,,A*60
$GPVTG,225.57,T,,M,0.04,N,0.07,K,A*39
$GPGGA,212804.000,5454.0705,N,00948.5455,E,1,5,2.71,1.8,M,44.6,M,,*59
$GPGLL,5454.0705,N,00948.5455,E,212804.000,A,A*52
$GPGSA,A,3,08,30,07,28,15,,,,,,,,4.09,2.71,3.07*0D
$GPGSV,3,1,12,13,82,258,18,28,58,097,35,15,48,290,35,20,41,258,19*7C
$GPGSV,3,2,12,30,40,075,29,05,27,202,,18,13,324,,08,12,025,41*72
$GPGSV,3,3,12,07,09,075,44,24,09,256,,21,07,300,,17,03,131,39*73
$GPRMC,212804.000,A,5454.0705,N,00948.5455,E,0.07,229.22,061017,,,A*6A
$GPVTG,229.22,T,,M,0.07,N,0.13,K,A*31
$GPGGA,212805.000,5454.0705,N,00948.5455,E,1,5,2.71,1.8,M,44.6,M,,*58
$GPGLL,5454.0705,N,00948.5455,E,212805.000,A,A*53
$GPGSA,A,3,08,30,07,28,15,,,,,,,,4.09,2.71,3.07*0D
$GPGSV,3,1,12,13,82,258,19,28,58,096,35,15,48,290,35,20,41,258,19*7C
$GPGSV,3,2,12,30,40,075,29,05,27,202,,18,13,324,,08,12,025,41*72
$GPGSV,3,3,12,07,09,075,45,24,09,256,,21,07,300,,17,03,131,39*72
$GPRMC,212805.000,A,5454.0705,N,00948.5455,E,0.08,228.42,061017,,,A*63
$GPVTG,228.42,T,,M,0.08,N,0.15,K,A*3F
$GPGGA,212806.000,5454.0705,N,00948.5455,E,1,5,2.71,1.8,M,44.6,M,,*5B
$GPGLL,5454.0705,N,00948.5455,E,212806.000,A,A*50
$GPGSA,A,3,08,30,07,28,15,,,,,,,,4.09,2.71,3.06*0C
$GPGSV,3,1,12,13,82,258,19,28,58,096,35,15,48,290,35,20,41,258,19*7C
$GPGSV,3,2,12,30,40,075,30,05,27,202,,18,13,324,,08,12,025,41*7A
$GPGSV,3,3,12,07,09,075,45,24,09,256,,21,07,300,,17,03,131,39*72
$GPRMC,212806.000,A,5454.0705,N,00948.5455,E,0.10,222.30,061017,,,A*66
$GPVTG,222.30,T,,M,0.10,N,0.18,K,A*34
$GPGGA,212807.000,5454.0704,N,00948.5455,E,1,5,2.71,1.8,M,44.6,M,,*5B
$GPGLL,5454.0704,N,00948.5455,E,212807.000,A,A*50
$GPGSA,A,3,08,30,07,28,15,,,,,,,,4.09,2.71,3.06*0C
$GPGSV,3,1,12,13,82,258,19,28,58,096,35,15,48,290,35,20,41,258,19*7C
$GPGSV,3,2,12,30,40,076,30,05,27,202,,18,13,324,,08,12,025,41*79
$GPGSV,3,3,12,07,09,075,45,24,09,256,,21,07,300,,17,03,131,39*72
$GPRMC,212807.000,A,5454.0704,N,00948.5455,E,0.08,232.17,061017,,,A*6B
$GPVTG,232.17,T,,M,0.08,N,0.16,K,A*37
$GPGGA,212808.000,5454.0704,N,00948.5454,E,1,5,2.71,1.9,M,44.6,M,,*54
$GPGLL,5454.0704,N,00948.5454,E,212808.000,A,A*5E
$GPGSA,A,3,08,30,07,28,15,,,,,,,,4.09,2.71,3.06*0C
$GPGSV,3,1,12,13,82,258,19,28,58,096,35,15,48,290,35,20,41,258,19*7C
$GPGSV,3,2,12,30,40,076,30,05,27,202,23,18,13,324,,08,12,025,41*78
$GPGSV,3,3,12,07,09,075,45,24,09,256,,21,07,300,,17,03,131,39*72
$GPRMC,212808.000,A,5454.0704,N,00948.5454,E,0.09,230.02,061017,,,A*62
$GPVTG,230.02,T,,M,0.09,N,0.17,K,A*31
$GPGGA,212809.000,5454.0704,N,00948.5454,E,1,5,2.71,1.9,M,44.6,M,,*55
$GPGLL,5454.0704,N,00948.5454,E,212809.000,A,A*5F
$GPGSA,A,3,08,30,07,28,15,,,,,,,,4.08,2.71,3.06*0D
$GPGSV,3,1,12,13,82,258,19,28,58,096,35,15,48,290,35,20,41,258,19*7C
$GPGSV,3,2,12,30,40,076,30,05,27,202,23,18,13,324,,08,12,025,41*78
$GPGSV,3,3,12,07,09,075,46,24,09,256,,21,07,300,,17,03,131,39*71
$GPRMC,212809.000,A,5454.0704,N,00948.5454,E,0.11,226.54,061017,,,A*6E
$GPVTG,226.54,T,,M,0.11,N,0.20,K,A*38
$GPGGA,212810.000,5454.0704,N,00948.5454,E,1,5,2.70,1.9,M,44.6,M,,*5C
$GPGLL,5454.0704,N,00948.5454,E,212810.000,A,A*57
$GPGSA,A,3,08,30,07,28,15,,,,,,,,4.08,2.70,3.06*0C
$GPGSV,3,1,12,13,82,258,19,28,58,096,35,15,48,290,35,20,41,258,19*7C
$GPGSV,3,2,12,30,40,076,30,05,27,202,24,18,13,324,,08,12,025,41*7F
$GPGSV,3,3,12,07,09,075,46,24,09,256,,21,07,300,,17,03,131,39*71
$GPRMC,212810.000,A,5454.0704,N,00948.5454,E,0.11,237.76,061017,,,A*66
$GPVTG,237.76,T,,M,0.11,N,0.21,K,A*39
$GPGGA,212811.000,5454.0704,N,00948.5453,E,1,5,2.71,1.9,M,44.6,M,,*5B
$GPGLL,5454.0704,N,00948.5453,E,212811.000,A,A*51
$GPGSA,A,3,08,30,07,28,15,,,,,,,,4.09,2.71,3.06*0C
$GPGSV,3,1,12,13,82,258,19,28,58,096,35,15,48,290,35,20,41,258,19*7C
$GPGSV,3,2,12,30,40,076,30,05,27,202,26,18,13,324,,08,12,025,41*7D
$GPGSV,3,3,12,07,09,075,46,24,09,256,,21,07,300,,17,03,131,39*71
$GPRMC,212811.000,A,5454.0704,N,00948.5453,E,0.14,240.75,061017,,,A*66
$GPVTG,240.75,T,,M,0.14,N,0.26,K,A*38
$GPGGA,212812.000,5454.0704,N,00948.5453,E,1,5,2.70,1.9,M,44.6,M,,*59
$GPGLL,5454.0704,N,00948.5453,E,212812.000,A,A*52
$GPGSA,A,3,08,30,07,28,15,,,,,,,,4.08,2.70,3.06*0C
$GPGSV,3,1,12,13,82,258,18,28,58,096,35,15,48,290,35,20,41,258,20*77
$GPGSV,3,2,12,30,40,076,30,05,27,202,24,18,13,324,,08,12,025,41*7F
$GPGSV,3,3,12,07,09,075,46,24,09,256,,21,07,300,,17,03,131,39*71
$GPRMC,212812.000,A,5454.0704,N,00948.5453,E,0.14,247.59,061017,,,A*6C
$GPVTG,247.59,T,,M,0.14,N,0.25,K,A*32
$GPGGA,212813.000,5454.0703,N,00948.5452,E,1,5,2.70,1.9,M,44.6,M,,*5E
$GPGLL,5454.0703,N,00948.5452,E,212813.000,A,A*55
$GPGSA,A,3,08,30,07,28,15,,,,,,,,4.08,2.70,3.06*0C
$GPGSV,3,1,12,13,82,258,18,28,58,096,35,15,48,290,35,20,41,258,20*77
$GPGSV,3,2,12,30,40,076,30,05,27,202,25,18,13,324,,08,12,025,41*7E
$GPGSV,3,3,12,07,09,075,46,24,09,256,,21,07,300,,17,03,131,39*71
$GPRMC,212813.000,A,5454.0703,N,00948.5452,E,0.13,249.97,061017,,,A*60
$GPVTG,249.97,T,,M,0.13,N,0.25,K,A*39
$GPGGA,212814.000,5454.0703,N,00948.5451,E,1,5,2.71,2.0,M,44.6,M,,*51
$GPGLL,5454.0703,N,00948.5451,E,212814.000,A,A*51
$GPGSA,A,3,08,30,07,28,15,,,,,,,,4.08,2.71,3.06*0D
$GPGSV,3,1,12,13,82,258,18,28,58,096,35,15,48,290,35,20,41,258,20*77
$GPGSV,3,2,12,30,40,076,30,05,27,202,25,18,13,324,,08,12,025,41*7E
$GPGSV,3,3,12,07,09,075,46,24,09,256,,21,07,300,,17,03,131,39*71
$GPRMC,212814.000,A,5454.0703,N,00948.5451,E,0.14,253.43,061017,,,A*61
$GPVTG,253.43,T,,M,0.14,N,0.27,K,A*3E
$GPGGA,212815.000,5454.0703,N,00948.5451,E,1,5,2.71,2.0,M,44.6,M,,*50
$GPGLL,5454.0703,N,00948.5451,E,212815.000,A,A*50
$GPGSA,A,3,08,30,07,28,15,,,,,,,,4.08,2.71,3.06*0D
$GPGSV,3,1,12,13,82,258,18,28,58,096,35,15,48,290,35,20,41,258,20*77
$GPGSV,3,2,12,30,40,076,30,05,27,202,24,18,13,324,,08,12,025,41*7F
$GPGSV,3,3,12,07,09,075,46,24,09,256,,21,07,300,,17,03,131,39*71
$GPRMC,212815.000,A,5454.0703,N,00948.5451,E,0.15,253.09,061017,,,A*6F
$GPVTG,253.09,T,,M,0.15,N,0.28,K,A*3E
$GPGGA,212816.000,5454.0703,N,00948.5450,E,1,5,2.71,2.0,M,44.6,M,,*52
$GPGLL,5454.0703,N,00948.5450,E,212816.000,A,A*52
$GPGSA,A,3,08,30,07,28,15,,,,,,,,4.08,2.71,3.06*0D
$GPGSV,3,1,12,13,82,258,18,28,58,096,35,15,48,290,36,20,41,258,20*74
$GPGSV,3,2,12,30,40,076,30,05,27,202,24,18,13,324,,08,12,025,41*7F
$GPGSV,3,3,12,07,09,075,46,24,09,256,,21,07,300,,17,03,131,39*71
$GPRMC,212816.000,A,5454.0703,N,00948.5450,E,0.14,255.81,061017,,,A*6A
$GPVTG,255.81,T,,M,0.14,N,0.27,K,A*36
$GPGGA,212817.000,5454.0703,N,00948.5449,E,1,5,2.70,2.0,M,44.6,M,,*5A
$GPGLL,5454.0703,N,00948.5449,E,212817.000,A,A*5B
$GPGSA,A,3,08,30,07,28,15,,,,,,,,4.08,2.70,3.06*0C
$GPGSV,3,1,12,13,82,258,18,28,58,096,35,15,48,290,36,20,41,258,20*74
$GPGSV,3,2,12,30,40,076,30,05,27,202,24,18,13,324,,08,12,025,41*7F
$GPGSV,3,3,12,07,09,075,46,24,09,256,,21,07,300,,17,03,131,39*71
$GPRMC,212817.000,A,5454.0703,N,00948.5449,E,0.15,267.40,061017,,,A*6E
$GPVTG,267.40,T,,M,0.15,N,0.28,K,A*34
$GPGGA,212818.000,5454.0703,N,00948.5449,E,1,5,2.71,2.1,M,44.6,M,,*55
$GPGLL,5454.0703,N,00948.5449,E,212818.000,A,A*54
$GPGSA,A,3,08,30,07,28,15,,,,,,,,4.08,2.71,3.05*0E
$GPGSV,3,1,12,13,82,258,18,28,58,096,35,15,48,290,36,20,41,258,20*74
$GPGSV,3,2,12,30,40,076,30,05,27,202,24,18,13,324,,08,12,025,41*7F
$GPGSV,3,3,12,07,09,075,46,24,09,256,,21,07,300,,17,03,131,39*71
$GPRMC,212818.000,A,5454.0703,N,00948.5449,E,0.16,264.50,061017,,,A*60
$GPVTG,264.50,T,,M,0.16,N,0.30,K,A*3C
$GPGGA,212819.000,5454.0703,N,00948.5448,E,1,5,2.70,2.1,M,44.6,M,,*54
$GPGLL,5454.0703,N,00948.5448,E,212819.000,A,A*54
$GPGSA,A,3,08,30,07,28,15,,,,,,,,4.08,2.70,3.05*0F
$GPGSV,3,1,12,13,82,258,18,28,58,096,35,15,48,290,36,20,41,258,20*74
$GPGSV,3,2,12,30,40,076,30,05,27,202,24,18,13,324,,08,12,025,41*7F
$GPGSV,3,3,12,07,09,075,46,24,09,256,,21,07,300,,17,03,131,38*70
$GPRMC,212819.000,A,5454.0703,N,00948.5448,E,0.18,263.64,061017,,,A*6E
$GPVTG,263.64,T,,M,0.18,N,0.33,K,A*31
$GPGGA,212820.000,5454.0703,N,00948.5447,E,1,5,2.70,2.1,M,44.6,M,,*51
$GPGLL,5454.0703,N,00948.5447,E,212820.000,A,A*51
$GPGSA,A,3,08,30,07,28,15,,,,,,,,4.08,2.70,3.05*0F
$GPGSV,3,1,12,13,82,258,18,28,58,096,35,15,48,290,37,20,41,258,20*75
$GPGSV,3,2,12,30,40,076,30,05,27,202,23,18,13,324,,08,12,025,41*78
$GPGSV,3,3,12,07,09,075,46,24,09,256,,21,07,300,,17,03,131,38*70
$GPRMC,212820.000,A,5454.0703,N,00948.5447,E,0.16,264.60,061017,,,A*66
$GPVTG,264.60,T,,M,0.16,N,0.30,K,A*3F
$GPGGA,212821.000,5454.0703,N,00948.5446,E,1,5,2.71,2.2,M,44.6,M,,*53
$GPGLL,5454.0703,N,00948.5446,E,212821.000,A,A*51
$GPGSA,A,3,08,30,07,28,15,,,,,,,,4.08,2.71,3.05*0E
$GPGSV,3,1,12,13,82,258,18,28,58,096,35,15,48,290,37,20,41,258,20*75
$GPGSV,3,2,12,30,40,076,31,05,27,202,23,18,13,324,,08,12,025,41*79
$GPGSV,3,3,12,07,09,075,46,24,09,256,,21,07,300,,17,03,131,38*70
$GPRMC,212821.000,A,5454.0703,N,00948.5446,E,0.16,262.75,061017,,,A*64
$GPVTG,262.75,T,,M,0.16,N,0.29,K,A*35
$GPGGA,212822.000,5454.0703,N,00948.5446,E,1,5,2.70,2.2,M,44.6,M,,*51
$GPGLL,5454.0703,N,00948.5446,E,212822.000,A,A*52
$GPGSA,A,3,08,30,07,28,15,,,,,,,,4.08,2.70,3.05*0F
$GPGSV,3,1,12,13,82,258,18,28,58,096,35,15,48,290,37,20,41,258,21*74
$GPGSV,3,2,12,30,40,076,31,05,27,202,23,18,13,324,,08,12,025,41*79
$GPGSV,3,3,12,07,09,075,46,24,09,256,,21,07,300,,17,03,131,38*70
$GPRMC,212822.000,A,5454.0703,N,00948.5446,E,0.15,262.59,061017,,,A*6A
$GPVTG,262.59,T,,M,0.15,N,0.27,K,A*36
$GPGGA,212823.000,5454.0703,N,00948.5445,E,1,5,2.70,2.3,M,44.6,M,,*52
$GPGLL,5454.0703,N,00948.5445,E,212823.000,A,A*50
$GPGSA,A,3,08,30,07,28,15,,,,,,,,4.08,2.70,3.05*0F
$GPGSV,3,1,12,13,82,258,18,28,58,096,35,15,48,290,37,20,41,258,21*74
$GPGSV,3,2,12,30,40,076,31,05,27,202,23,18,13,324,,08,12,025,41*79
$GPGSV,3,3,12,07,09,075,46,24,09,256,,21,07,300,,17,03,131,38*70
$GPRMC,212823.000,A,5454.0703,N,00948.5445,E,0.12,275.45,061017,,,A*64
$GPVTG,275.45,T,,M,0.12,N,0.22,K,A*3F
$GPGGA,212824.000,5454.0703,N,00948.5444,E,1,5,2.70,2.3,M,44.6,M,,*54
$GPGLL,5454.0703,N,00948.5444,E,212824.000,A,A*56
$GPGSA,A,3,08,30,07,28,15,,,,,,,,4.07,2.70,3.05*00
$GPGSV,3,1,12,13,82,258,18,28,58,096,35,15,48,290,37,20,41,258,21*74
$GPGSV,3,2,12,30,40,076,31,05,27,202,24,18,13,324,,08,12,025,41*7E
$GPGSV,3,3,12,07,09,075,46,24,09,256,,21,07,300,,17,03,131,38*70
$GPRMC,212824.000,A,5454.0703,N,00948.5444,E,0.12,270.21,061017,,,A*65
$GPVTG,270.21,T,,M,0.12,N,0.22,K,A*38
$GPGGA,212825.000,5454.0703,N,00948.5444,E,1,5,2.70,2.4,M,44.6,M,,*52
$GPGLL,5454.0703,N,00948.5444,E,212825.000,A,A*57
$GPGSA,A,3,08,30,07,28,15,,,,,,,,4.07,2.70,3.05*00
$GPGSV,3,1,12,13,82,256,18,28,58,096,35,15,48,290,37,20,41,258,22*79
$GPGSV,3,2,12,30,40,076,32,05,27,202,24,18,13,324,,08,12,025,41*7D
$GPGSV,3,3,12,07,09,075,46,24,09,256,,21,07,300,,17,03,131,38*70
$GPRMC,212825.000,A,5454.0703,N,00948.5444,E,0.10,265.17,061017,,,A*67
$GPVTG,265.17,T,,M,0.10,N,0.19,K,A*33
$GPGGA,212826.000,5454.0703,N,00948.5443,E,1,5,2.71,2.4,M,44.6,M,,*57
$GPGLL,5454.0703,N,00948.5443,E,212826.000,A,A*53
$GPGSA,A,3,08,30,07,28,15,,,,,,,,4.08,2.71,3.05*0E
$GPGSV,3,1,12,13,82,256,18,28,58,096,35,15,48,290,37,20,41,258,22*79
$GPGSV,3,2,12,30,40,076,32,05,27,202,24,18,13,324,,08,12,025,41*7D
$GPGSV,3,3,12,07,09,075,46,24,09,256,,21,07,300,,17,03,131,38*70
$GPRMC,212826.000,A,5454.0703,N,00948.5443,E,0.07,276.68,061017,,,A*6F
$GPVTG,276.68,T,,M,0.07,N,0.13,K,A*35
$GPGGA,212827.000,5454.0703,N,00948.5443,E,1,5,2.70,2.5,M,44.6,M,,*56
$GPGLL,5454.0703,N,00948.5443,E,212827.000,A,A*52
$GPGSA,A,3,08,30,07,28,15,,,,,,,,4.07,2.70,3.05*00
$GPGSV,3,1,12,13,82,256,18,28,58,096,35,15,48,290,37,20,41,258,22*79
$GPGSV,3,2,12,30,40,076,32,05,27,202,24,18,13,324,,08,12,025,41*7D
$GPGSV,3,3,12,07,09,075,46,24,09,256,,21,07,300,,17,03,131,37*7F
$GPRMC,212827.000,A,5454.0703,N,00948.5443,E,0.08,273.95,061017,,,A*66
$GPVTG,273.95,T,,M,0.08,N,0.14,K,A*3A
$GPGGA,212828.000,5454.0703,N,00948.5443,E,1,5,2.70,2.5,M,44.6,M,,*59
$GPGLL,5454.0703,N,00948.5443,E,212828.000,A,A*5D
$GPGSA,A,3,08,30,07,28,15,,,,,,,,4.07,2.70,3.05*00
$GPGSV,3,1,12,13,82,256,18,28,58,096,35,15,48,290,37,20,41,258,22*79
$GPGSV,3,2,12,30,40,076,32,05,27,202,24,18,13,324,,08,12,025,41*7D
$GPGSV,3,3,12,07,09,075,46,24,09,256,,21,07,300,,17,03,131,37*7F
$GPRMC,212828.000,A,5454.0703,N,00948.5443,E,0.06,286.54,061017,,,A*60
$GPVTG,286.54,T,,M,0.06,N,0.12,K,A*35
$GPGGA,212829.000,5454.0703,N,00948.5443,E,1,5,2.70,2.6,M,44.6,M,,*5B
$GPGLL,5454.0703,N,00948.5443,E,212829.000,A,A*5C
$GPGSA,A,3,08,30,07,28,15,,,,,,,,4.07,2.70,3.05*00
$GPGSV,3,1,12,13,82,256,19,28,58,096,35,15,48,290,37,20,41,258,23*79
$GPGSV,3,2,12,30,40,076,32,05,27,202,24,18,13,324,,08,12,025,41*7D
$GPGSV,3,3,12,07,09,075,46,24,09,256,,21,07,300,,17,03,131,37*7F
$GPRMC,212829.000,A,5454.0703,N,00948.5443,E,0.07,280.73,061017,,,A*63
$GPVTG,280.73,T,,M,0.07,N,0.14,K,A*31
$GPGGA,212830.000,5454.0703,N,00948.5442,E,1,5,2.70,2.6,M,44.6,M,,*52
$GPGLL,5454.0703,N,00948.5442,E,212830.000,A,A*55
$GPGSA,A,3,08,30,07,28,15,,,,,,,,4.07,2.70,3.05*00
$GPGSV,3,1,12,13,82,256,20,28,58,096,35,15,48,290,37,20,41,258,23*73
$GPGSV,3,2,12,30,40,076,32,05,27,202,24,18,14,324,,08,12,025,41*7A
$GPGSV,3,3,12,07,09,075,46,24,09,256,,21,07,300,,17,03,131,37*7F
$GPRMC,212830.000,A,5454.0703,N,00948.5442,E,0.08,286.51,061017,,,A*63
$GPVTG,286.51,T,,M,0.08,N,0.15,K,A*39
$GPGGA,212831.000,5454.0703,N,00948.5442,E,1,5,2.70,2.7,M,44.6,M,,*52
$GPGLL,5454.0703,N,00948.5442,E,212831.000,A,A*54
$GPGSA,A,3,08,30,07,28,15,,,,,,,,4.07,2.70,3.04*01
$GPGSV,3,1,12,13,82,256,20,28,58,096,35,15,48,290,37,20,41,258,24*74
$GPGSV,3,2,12,30,40,076,32,05,27,202,24,18,14,324,,08,12,025,41*7A
$GPGSV,3,3,12,07,09,075,46,24,09,256,,21,07,300,,17,03,131,37*7F
$GPRMC,212831.000,A,5454.0703,N,00948.5442,E,0.08,294.07,061017,,,A*62
$GPVTG,294.07,T,,M,0.08,N,0.14,K,A*38
$GPGGA,212832.000,5454.0703,N,00948.5442,E,1,5,2.70,2.7,M,44.6,M,,*51
$GPGLL,5454.0703,N,00948.5442,E,212832.000,A,A*57
$GPGSA,A,3,08,30,07,28,15,,,,,,,,4.07,2.70,3.04*01
$GPGSV,3,1,12,13,82,256,20,28,58,096,35,15,48,290,37,20,41,258,24*74
$GPGSV,3,2,12,30,40,076,32,05,27,202,24,18,14,324,,08,12,025,41*7A
$GPGSV,3,3,12,07,09,075,46,24,09,256,,21,07,300,,17,03,131,36*7E
$GPRMC,212832.000,A,5454.0703,N,00948.5442,E,0.04,317.97,061017,,,A*6E
$GPVTG,317.97,T,,M,0.04,N,0.07,K,A*35
$GPGGA,212833.000,5454.0703,N,00948.5442,E,1,5,2.70,2.8,M,44.6,M,,*5F
$GPGLL,5454.0703,N,00948.5442,E,212833.000,A,A*56
$GPGSA,A,3,08,30,07,28,15,,,,,,,,4.07,2.70,3.04*01
$GPGSV,3,1,12,13,82,256,20,28,58,096,35,15,48,290,37,20,41,258,24*74
$GPGSV,3,2,12,30,40,076,32,05,27,202,23,18,14,324,,08,12,025,41*7D
$GPGSV,3,3,12,07,09,075,46,24,09,256,,21,07,300,,17,03,131,36*7E
$GPRMC,212833.000,A,5454.0703,N,00948.5442,E,0.08,313.51,061017,,,A*6D
$GPVTG,313.51,T,,M,0.08,N,0.16,K,A*37
$GPGGA,212834.000,5454.0703,N,00948.5441,E,1,5,2.70,2.9,M,44.6,M,,*5A
$GPGLL,5454.0703,N,00948.5441,E,212834.000,A,A*52
$GPGSA,A,3,08,30,07,28,15,,,,,,,,4.06,2.70,3.04*00
$GPGSV,3,1,12,13,82,256,20,28,58,096,35,15,48,290,37,20,41,258,24*74
$GPGSV,3,2,12,30,40,076,32,05,27,202,22,18,14,324,,08,12,025,41*7C
$GPGSV,3,3,12,07,09,075,46,24,09,256,,21,07,300,,17,03,131,36*7E
$GPRMC,212834.000,A,5454.0703,N,00948.5441,E,0.07,309.05,061017,,,A*6C
$GPVTG,309.05,T,,M,0.07,N,0.13,K,A*37
$GPGGA,212835.000,5454.0704,N,00948.5441,E,1,5,2.70,2.9,M,44.6,M,,*5C
$GPGLL,5454.0704,N,00948.5441,E,212835.000,A,A*54
$GPGSA,A,3,08,30,07,28,15,,,,,,,,4.06,2.70,3.04*00
$GPGSV,3,1,12,13,82,256,21,28,58,096,36,15,48,290,37,20,41,258,24*76
$GPGSV,3,2,12,30,40,076,33,05,27,202,21,18,14,324,,08,12,025,41*7E
$GPGSV,3,3,12,07,09,075,46,24,09,256,,21,07,300,,17,03,131,36*7E
$GPRMC,212835.000,A,5454.0704,N,00948.5441,E,0.06,319.42,061017,,,A*69
$GPVTG,319.42,T,,M,0.06,N,0.10,K,A*37
$GPGGA,212836.000,5454.0704,N,00948.5441,E,1,5,2.70,3.0,M,44.6,M,,*57
$GPGLL,5454.0704,N,00948.5441,E,212836.000,A,A*57
$GPGSA,A,3,08,30,07,28,15,,,,,,,,4.06,2.70,3.04*00
$GPGSV,3,1,12,13,82,256,21,28,58,096,36,15,48,290,37,20,41,258,24*76
$GPGSV,3,2,12,30,40,076,32,05,27,202,21,18,14,324,,08,12,025,41*7F
$GPGSV,3,3,12,07,09,075,46,24,09,256,,21,07,300,,17,03,131,36*7E
$GPRMC,212836.000,A,5454.0704,N,00948.5441,E,0.05,324.27,061017,,,A*64
$GPVTG,324.27,T,,M,0.05,N,0.10,K,A*39
$GPGGA,212837.000,5454.0704,N,00948.5441,E,1,5,2.70,3.1,M,44.6,M,,*57
$GPGLL,5454.0704,N,00948.5441,E,212837.000,A,A*56
$GPGSA,A,3,08,30,07,28,15,,,,,,,,4.06,2.70,3.04*00
$GPGSV,3,1,12,13,82,256,21,28,58,096,36,15,48,290,37,20,41,258,24*76
$GPGSV,3,2,12,30,40,076,33,05,27,202,21,18,14,324,,08,12,025,41*7E
$GPGSV,3,3,12,07,09,075,46,24,09,256,,21,07,300,,17,03,131,36*7E
$GPRMC,212837.000,A,5454.0704,N,00948.5441,E,0.04,317.84,061017,,,A*6D
$GPVTG,317.84,T,,M,0.04,N,0.08,K,A*38
$GPGGA,212838.000,5454.0704,N,00948.5441,E,1,5,1.78,3.1,M,44.6,M,,*53
$GPGLL,5454.0704,N,00948.5441,E,212838.000,A,A*59
$GPGSA,A,3,08,30,07,28,15,,,,,,,,2.02,1.78,0.95*02
$GPGSV,3,1,12,13,82,256,21,28,58,096,36,15,48,290,37,20,41,258,24*76
$GPGSV,3,2,12,30,40,076,34,05,27,202,21,18,14,324,,08,12,025,41*79
$GPGSV,3,3,12,07,09,075,46,24,09,256,,21,07,300,,17,03,131,36*7E
$GPRMC,212838.000,A,5454.0704,N,00948.5441,E,0.06,13.43,061017,,,A*5C
$GPVTG,13.43,T,,M,0.06,N,0.11,K,A*0E
$GPGGA,212839.000,5454.0704,N,00948.5441,E,1,5,2.70,3.2,M,44.6,M,,*5A
$GPGLL,5454.0704,N,00948.5441,E,212839.000,A,A*58
$GPGSA,A,3,08,30,07,28,15,,,,,,,,4.06,2.70,3.04*00
$GPGSV,3,1,12,13,82,256,21,28,58,096,36,15,48,290,37,20,41,258,24*76
$GPGSV,3,2,12,30,40,076,33,05,27,202,21,18,14,324,,08,12,025,41*7E
$GPGSV,3,3,12,07,09,075,46,24,09,256,,21,07,300,,17,03,131,36*7E
$GPRMC,212839.000,A,5454.0704,N,00948.5441,E,0.04,28.71,061017,,,A*56
$GPVTG,28.71,T,,M,0.04,N,0.07,K,A*02
$GPGGA,212840.000,5454.0704,N,00948.5441,E,1,5,2.70,3.2,M,44.6,M,,*54
$GPGLL,5454.0704,N,00948.5441,E,212840.000,A,A*56
$GPGSA,A,3,08,30,07,28,15,,,,,,,,4.06,2.70,3.04*00
$GPGSV,3,1,12,13,82,256,22,28,58,096,36,15,48,290,36,20,41,258,24*74
$GPGSV,3,2,12,30,40,076,32,05,27,202,21,18,14,324,,08,12,025,41*7F
$GPGSV,3,3,12,07,09,075,46,24,09,256,,21,07,300,,17,03,131,36*7E
$GPRMC,212840.000,A,5454.0704,N,00948.5441,E,0.03,18.85,061017,,,A*57
$GPVTG,18.85,T,,M,0.03,N,0.05,K,A*0F
$GPGGA,212841.000,5454.0704,N,00948.5441,E,1,5,2.70,3.2,M,44.6,M,,*55
$GPGLL,5454.0704,N,00948.5441,E,212841.000,A,A*57
$GPGSA,A,3,08,30,07,28,15,,,,,,,,4.06,2.70,3.04*00
$GPGSV,3,1,12,13,82,256,22,28,58,096,36,15,48,290,36,20,41,258,24*74
$GPGSV,3,2,12,30,40,076,31,05,27,202,22,18,14,324,,08,12,025,41*7F
$GPGSV,3,3,12,07,09,075,46,24,09,256,20,21,07,300,,17,03,131,36*7C
$GPRMC,212841.000,A,5454.0704,N,00948.5441,E,0.03,18.07,061017,,,A*5C
$GPVTG,18.07,T,,M,0.03,N,0.05,K,A*05
$GPGGA,212842.000,5454.0704,N,00948.5441,E,1,5,2.70,3.2,M,44.6,M,,*56
$GPGLL,5454.0704,N,00948.5441,E,212842.000,A,A*54
$GPGSA,A,3,08,30,07,28,15,,,,,,,,4.06,2.70,3.04*00
$GPGSV,3,1,12,13,82,256,23,28,58,096,36,15,48,290,36,20,41,258,24*75
$GPGSV,3,2,12,30,39,076,31,05,27,202,22,18,14,324,,08,12,025,41*71
$GPGSV,3,3,12,07,09,075,46,24,09,256,17,21,07,300,,17,03,131,36*78
$GPRMC,212842.000,A,5454.0704,N,00948.5441,E,0.03,17.39,061017,,,A*5D
$GPVTG,17.39,T,,M,0.03,N,0.05,K,A*07
$GPGGA,212843.000,5454.0704,N,00948.5441,E,1,5,2.70,3.2,M,44.6,M,,*57
$GPGLL,5454.0704,N,00948.5441,E,212843.000,A,A*55
$GPGSA,A,3,08,30,07,28,15,,,,,,,,4.06,2.70,3.04*00
$GPGSV,3,1,12,13,82,256,24,28,58,096,36,15,48,290,36,20,41,258,24*72
$GPGSV,3,2,12,30,39,076,31,05,27,202,22,18,14,324,,08,12,025,41*71
$GPGSV,3,3,12,07,09,075,46,24,09,256,17,21,07,300,,17,03,131,36*78
$GPRMC,212843.000,A,5454.0704,N,00948.5441,E,0.03,2.58,061017,,,A*6F
$GPVTG,2.58,T,,M,0.03,N,0.05,K,A*34
$GPGGA,212844.000,5454.0704,N,00948.5441,E,1,5,2.70,3.3,M,44.6,M,,*51
$GPGLL,5454.0704,N,00948.5441,E,212844.000,A,A*52
$GPGSA,A,3,08,30,07,28,15,,,,,,,,4.06,2.70,3.03*07
$GPGSV,3,1,12,13,82,256,24,28,58,096,36,15,48,290,36,20,41,258,23*75
$GPGSV,3,2,12,30,39,076,30,05,27,202,22,18,14,324,,08,12,025,41*70
$GPGSV,3,3,12,07,09,075,46,24,09,256,22,21,07,300,,17,03,131,36*7E
$GPRMC,212844.000,A,5454.0704,N,00948.5441,E,0.03,330.74,061017,,,A*64
$GPVTG,330.74,T,,M,0.03,N,0.06,K,A*3B
$GPGGA,212845.000,5454.0704,N,00948.5441,E,1,5,2.70,3.3,M,44.6,M,,*50
$GPGLL,5454.0704,N,00948.5441,E,212845.000,A,A*53
$GPGSA,A,3,08,30,07,28,15,,,,,,,,4.06,2.70,3.03*07
$GPGSV,3,1,12,13,82,256,25,28,58,096,36,15,48,290,36,20,41,258,23*74
$GPGSV,3,2,12,30,39,076,28,05,27,202,22,18,14,324,,08,12,025,41*79
$GPGSV,3,3,12,07,09,075,46,24,09,256,21,21,07,300,,17,03,131,36*7D
$GPRMC,212845.000,A,5454.0704,N,00948.5441,E,0.04,329.65,061017,,,A*6A
$GPVTG,329.65,T,,M,0.04,N,0.07,K,A*35
$GPGGA,212846.000,5454.0704,N,00948.5441,E,1,5,2.70,3.3,M,44.6,M,,*53
$GPGLL,5454.0704,N,00948.5441,E,212846.000,A,A*50
$GPGSA,A,3,08,30,07,28,15,,,,,,,,4.06,2.70,3.03*07
$GPGSV,3,1,12,13,82,256,25,28,58,096,36,15,48,290,36,20,41,258,22*75
$GPGSV,3,2,12,30,39,076,26,05,27,202,22,18,14,324,,08,12,025,41*77
$GPGSV,3,3,12,07,09,075,46,24,09,256,21,21,07,300,,17,03,131,36*7D
$GPRMC,212846.000,A,5454.0704,N,00948.5441,E,0.05,302.64,061017,,,A*60
$GPVTG,302.64,T,,M,0.05,N,0.10,K,A*3A
$GPGGA,212847.000,5454.0704,N,00948.5441,E,1,5,2.69,3.3,M,44.6,M,,*5A
$GPGLL,5454.0704,N,00948.5441,E,212847.000,A,A*51
$GPGSA,A,3,08,30,07,28,15,,,,,,,,4.06,2.69,3.03*0F
$GPGSV,3,1,12,13,82,256,25,28,58,096,36,15,48,290,36,20,41,258,22*75
$GPGSV,3,2,12,30,39,076,17,05,27,202,23,18,14,324,,08,12,025,41*74
$GPGSV,3,3,12,07,09,075,46,24,09,256,20,21,07,300,,17,03,131,36*7C
$GPRMC,212847.000,A,5454.0704,N,00948.5441,E,0.06,304.91,061017,,,A*6E
$GPVTG,304.91,T,,M,0.06,N,0.12,K,A*37
$GPGGA,212848.000,5454.0704,N,00948.5441,E,1,5,2.70,3.3,M,44.6,M,,*5D
$GPGLL,5454.0704,N,00948.5441,E,212848.000,A,A*5E
$GPGSA,A,3,08,30,07,28,15,,,,,,,,4.06,2.70,3.03*07
$GPGSV,3,1,12,13,82,256,25,28,58,096,36,15,48,290,36,20,41,258,21*76
$GPGSV,3,2,12,30,39,076,16,05,27,202,23,18,14,324,,08,12,025,41*75
$GPGSV,3,3,12,07,09,075,46,24,09,256,,21,07,300,,17,03,131,36*7E
$GPRMC,212848.000,A,5454.0704,N,00948.5441,E,0.08,307.60,061017,,,A*62
$GPVTG,307.60,T,,M,0.08,N,0.14,K,A*32
$GPGGA,212849.000,5454.0705,N,00948.5440,E,1,5,2.70,3.4,M,44.6,M,,*5B
$GPGLL,5454.0705,N,00948.5440,E,212849.000,A,A*5F
$GPGSA,A,3,08,30,07,28,15,,,,,,,,4.06,2.70,3.03*07
$GPGSV,3,1,12,13,82,256,25,28,58,096,36,15,48,290,36,20,41,258,21*76
$GPGSV,3,2,12,30,39,076,15,05,27,202,23,18,14,324,,08,12,025,40*77
$GPGSV,3,3,12,07,09,075,46,24,09,256,21,21,07,300,,17,03,131,36*7D
$GPRMC,212849.000,A,5454.0705,N,00948.5440,E,0.08,318.21,061017,,,A*68
$GPVTG,318.21,T,,M,0.08,N,0.14,K,A*39
$GPGGA,212850.000,5454.0705,N,00948.5440,E,1,5,2.70,3.4,M,44.6,M,,*53
$GPGLL,5454.0705,N,00948.5440,E,212850.000,A,A*57
$GPGSA,A,3,08,30,07,28,15,,,,,,,,4.06,2.70,3.03*07
$GPGSV,3,1,12,13,82,256,25,28,58,096,36,15,48,290,36,20,41,258,22*75
$GPGSV,3,2,12,30,39,076,16,05,27,202,23,18,14,324,,08,12,025,40*74
$GPGSV,3,3,12,07,09,075,46,24,09,256,18,21,07,300,,17,03,131,37*76
$GPRMC,212850.000,A,5454.0705,N,00948.5440,E,0.09,318.54,061017,,,A*63
$GPVTG,318.54,T,,M,0.09,N,0.16,K,A*38
$GPGGA,212851.000,5454.0705,N,00948.5440,E,1,5,2.70,3.4,M,44.6,M,,*52
$GPGLL,5454.0705,N,00948.5440,E,212851.000,A,A*56
$GPGSA,A,3,08,30,07,28,15,,,,,,,,4.05,2.70,3.03*04
$GPGSV,3,1,12,13,82,256,25,28,58,096,36,15,48,290,36,20,41,258,22*75
$GPGSV,3,2,12,30,39,076,20,05,27,202,22,18,14,324,,08,12,025,40*70
$GPGSV,3,3,12,07,09,075,46,24,09,256,17,21,07,300,,17,03,131,37*79
$GPRMC,212851.000,A,5454.0705,N,00948.5440,E,0.09,332.33,061017,,,A*6B
$GPVTG,332.33,T,,M,0.09,N,0.16,K,A*31
$GPGGA,212852.000,5454.0705,N,00948.5440,E,1,5,2.69,3.4,M,44.6,M,,*59
$GPGLL,5454.0705,N,00948.5440,E,212852.000,A,A*55
$GPGSA,A,3,08,30,07,28,15,,,,,,,,4.05,2.69,3.03*0C
$GPGSV,3,1,12,13,82,256,24,28,58,096,36,15,48,290,36,20,41,258,22*74
$GPGSV,3,2,12,30,39,076,22,05,27,202,21,18,14,324,,08,12,025,40*71
$GPGSV,3,3,12,07,09,075,46,24,09,256,17,21,07,300,,17,03,131,37*79
$GPRMC,212852.000,A,5454.0705,N,00948.5440,E,0.08,324.56,061017,,,A*6D
$GPVTG,324.56,T,,M,0.08,N,0.15,K,A*37
$GPGGA,212853.000,5454.0705,N,00948.5440,E,1,5,2.69,3.5,M,44.6,M,,*59
$GPGLL,5454.0705,N,00948.5440,E,212853.000,A,A*54
$GPGSA,A,3,08,30,07,28,15,,,,,,,,4.05,2.69,3.03*0C
$GPGSV,3,1,12,13,82,256,24,28,58,096,36,15,48,290,37,20,41,258,22*75
$GPGSV,3,2,12,30,39,076,17,05,27,202,21,18,14,324,,08,12,025,40*77
$GPGSV,3,3,12,07,09,075,46,24,09,256,,21,07,300,20,17,03,131,37*7D
$GPRMC,212853.000,A,5454.0705,N,00948.5440,E,0.10,330.50,061017,,,A*66
$GPVTG,330.50,T,,M,0.10,N,0.19,K,A*31
$GPGGA,212854.000,5454.0706,N,00948.5439,E,1,5,2.69,3.5,M,44.6,M,,*53
$GPGLL,5454.0706,N,00948.5439,E,212854.000,A,A*5E
$GPGSA,A,3,08,30,07,28,15,,,,,,,,4.05,2.69,3.03*0C
$GPGSV,3,1,12,13,82,256,24,28,58,096,36,15,48,290,37,20,41,258,22*75
$GPGSV,3,2,12,30,39,076,16,05,27,202,20,18,14,324,,08,12,025,40*77
$GPGSV,3,3,12,07,09,075,46,24,09,256,,21,07,300,22,17,03,131,37*7F
$GPRMC,212854.000,A,5454.0706,N,00948.5439,E,0.10,329.96,061017,,,A*6E
$GPVTG,329.96,T,,M,0.10,N,0.19,K,A*33
$GPGGA,212855.000,5454.0706,N,00948.5439,E,1,5,2.69,3.5,M,44.6,M,,*52
$GPGLL,5454.0706,N,00948.5439,E,212855.000,A,A*5F
$GPGSA,A,3,08,30,07,28,15,,,,,,,,4.05,2.69,3.03*0C
$GPGSV,3,1,12,13,82,256,23,28,58,096,36,15,48,290,37,20,41,258,22*72
$GPGSV,3,2,12,30,39,076,16,05,27,202,19,18,14,324,,08,12,025,40*7D
$GPGSV,3,3,12,07,09,075,46,24,09,256,,21,07,300,20,17,03,131,37*7D
$GPRMC,212855.000,A,5454.0706,N,00948.5439,E,0.11,335.20,061017,,,A*6E
$GPVTG,335.20,T,,M,0.11,N,0.21,K,A*39
$GPGGA,212856.000,5454.0706,N,00948.5439,E,1,5,2.70,3.6,M,44.6,M,,*5A
$GPGLL,5454.0706,N,00948.5439,E,212856.000,A,A*5C
$GPGSA,A,3,08,30,07,28,15,,,,,,,,4.05,2.70,3.03*04
$GPGSV,3,1,12,13,82,256,22,28,58,096,36,15,48,290,37,20,41,258,22*73
$GPGSV,3,2,12,30,39,076,16,05,27,202,18,18,14,324,,08,12,025,39*72
$GPGSV,3,3,12,07,09,075,45,24,09,256,,21,07,300,20,17,03,131,37*7E
$GPRMC,212856.000,A,5454.0706,N,00948.5439,E,0.10,323.16,061017,,,A*6E
$GPVTG,323.16,T,,M,0.10,N,0.19,K,A*31
$GPGGA,212857.000,5454.0706,N,00948.5439,E,1,5,2.69,3.6,M,44.6,M,,*53
$GPGLL,5454.0706,N,00948.5439,E,212857.000,A,A*5D
$GPGSA,A,3,08,30,07,28,15,,,,,,,,4.05,2.69,3.02*0D
$GPGSV,3,1,12,13,82,256,21,28,58,096,37,15,48,290,37,20,41,258,21*72
$GPGSV,3,2,12,30,39,076,18,05,27,202,19,18,14,324,,08,12,025,39*7D
$GPGSV,3,3,12,07,09,075,44,24,09,256,,21,07,300,20,17,03,131,37*7F
$GPRMC,212857.000,A,5454.0706,N,00948.5439,E,0.08,325.39,061017,,,A*6D
$GPVTG,325.39,T,,M,0.08,N,0.15,K,A*3F
$GPGGA,212858.000,5454.0707,N,00948.5438,E,1,5,2.69,3.6,M,44.6,M,,*5C
$GPGLL,5454.0707,N,00948.5438,E,212858.000,A,A*52
$GPGSA,A,3,08,30,07,28,15,,,,,,,,4.05,2.69,3.02*0D
$GPGSV,3,1,12,13,82,256,21,28,58,096,37,15,48,290,37,20,41,258,21*72
$GPGSV,3,2,12,30,39,076,25,05,27,202,20,18,14,324,,08,12,025,39*79
$GPGSV,3,3,12,07,09,075,44,24,09,256,,21,07,300,18,17,03,131,37*74
$GPRMC,212858.000,A,5454.0707,N,00948.5438,E,0.10,311.80,061017,,,A*6E
$GPVTG,311.80,T,,M,0.10,N,0.18,K,A*3E
$GPGGA,212859.000,5454.0707,N,00948.5438,E,1,5,2.69,3.7,M,44.6,M,,*5C
$GPGLL,5454.0707,N,00948.5438,E,212859.000,A,A*53
$GPGSA,A,3,08,30,07,28,15,,,,,,,,4.05,2.69,3.02*0D
$GPGSV,3,1,12,13,82,256,21,28,58,096,37,15,48,290,37,20,41,258,21*72
$GPGSV,3,2,12,30,39,076,26,05,27,202,21,18,14,324,,08,12,025,39*7B
$GPGSV,3,3,12,07,09,075,44,24,09,256,,21,07,300,16,17,03,131,37*7A
$GPRMC,212859.000,A,5454.0707,N,00948.5438,E,0.10,306.84,061017,,,A*6D
$GPVTG,306.84,T,,M,0.10,N,0.19,K,A*3D
$GPGGA,212900.000,5454.0707,N,00948.5438,E,1,5,2.69,3.7,M,44.6,M,,*51
$GPGLL,5454.0707,N,00948.5438,E,212900.000,A,A*5E
$GPGSA,A,3,08,30,07,28,15,,,,,,,,4.05,2.69,3.02*0D
$GPGSV,3,1,12,13,82,255,21,28,58,096,37,15,48,290,37,20,41,258,21*71
$GPGSV,3,2,12,30,39,076,27,05,27,202,22,18,14,324,,08,12,025,39*79
$GPGSV,3,3,12,07,09,075,44,24,09,256,,21,07,300,14,17,03,131,37*78
$GPRMC,212900.000,A,5454.0707,N,00948.5438,E,0.10,300.95,061017,,,A*66
$GPVTG,300.95,T,,M,0.10,N,0.18,K,A*3A
$GPGGA,212901.000,5454.0707,N,00948.5437,E,1,5,2.69,3.7,M,44.6,M,,*5F
$GPGLL,5454.0707,N,00948.5437,E,212901.000,A,A*50
$GPGSA,A,3,08,30,07,28,15,,,,,,,,4.05,2.69,3.02*0D
$GPGSV,3,1,12,13,82,255,21,28,58,096,37,15,48,290,37,20,41,258,21*71
$GPGSV,3,2,12,30,39,076,28,05,27,202,23,18,14,324,,08,12,025,38*76
$GPGSV,3,3,12,07,09,075,43,24,09,256,,21,07,300,15,17,03,131,37*7E
$GPRMC,212901.000,A,5454.0707,N,00948.5437,E,0.09,294.29,061017,,,A*6B
$GPVTG,294.29,T,,M,0.09,N,0.17,K,A*36
$GPGGA,212902.000,5454.0707,N,00948.5437,E,1,5,2.69,3.8,M,44.6,M,,*53
$GPGLL,5454.0707,N,00948.5437,E,212902.000,A,A*53
$GPGSA,A,3,08,30,07,28,15,,,,,,,,4.05,2.69,3.02*0D
$GPGSV,3,1,12,13,82,255,22,28,58,096,37,15,49,290,37,20,41,258,22*70
$GPGSV,3,2,12,30,39,076,29,05,27,202,23,18,14,324,,08,12,025,38*77
$GPGSV,3,3,12,07,09,075,43,24,09,256,,21,07,300,16,17,03,131,37*7D
$GPRMC,212902.000,A,5454.0707,N,00948.5437,E,0.07,298.24,061017,,,A*67
$GPVTG,298.24,T,,M,0.07,N,0.13,K,A*3D
$GPGGA,212903.000,5454.0707,N,00948.5437,E,1,5,2.69,3.8,M,44.6,M,,*52
$GPGLL,5454.0707,N,00948.5437,E,212903.000,A,A*52
$GPGSA,A,3,08,30,07,28,15,,,,,,,,4.04,2.69,3.02*0C
$GPGSV,3,1,12,13,82,255,22,28,58,096,37,15,49,290,37,20,41,258,22*70
$GPGSV,3,2,12,30,39,076,29,05,27,202,23,18,14,324,,08,12,025,38*77
$GPGSV,3,3,12,07,09,075,42,24,09,256,,21,07,300,13,17,03,131,37*79
$GPRMC,212903.000,A,5454.0707,N,00948.5437,E,0.07,300.49,061017,,,A*6D
$GPVTG,300.49,T,,M,0.07,N,0.12,K,A*37
$GPGGA,212904.000,5454.0707,N,00948.5436,E,1,5,2.69,3.8,M,44.6,M,,*54
$GPGLL,5454.0707,N,00948.5436,E,212904.000,A,A*54
$GPGSA,A,3,08,30,07,28,15,,,,,,,,4.04,2.69,3.02*0C
$GPGSV,3,1,12,13,82,255,22,28,58,096,37,15,49,290,37,20,41,258,22*70
$GPGSV,3,2,12,30,39,076,29,05,27,202,23,18,14,324,,08,12,025,38*77
$GPGSV,3,3,12,07,09,075,42,24,09,256,,21,07,300,15,17,04,131,37*78
$GPRMC,212904.000,A,5454.0707,N,00948.5436,E,0.08,300.53,061017,,,A*6F
$GPVTG,300.53,T,,M,0.08,N,0.15,K,A*34
$GPGGA,212905.000,5454.0708,N,00948.5436,E,1,5,2.69,3.9,M,44.6,M,,*5B
$GPGLL,5454.0708,N,00948.5436,E,212905.000,A,A*5A
$GPGSA,A,3,08,30,07,28,15,,,,,,,,4.04,2.69,3.02*0C
$GPGSV,3,1,12,13,82,255,23,28,58,096,37,15,49,290,37,20,41,258,22*71
$GPGSV,3,2,12,30,39,076,29,05,27,202,23,18,14,324,,08,12,025,38*77
$GPGSV,3,3,12,07,09,075,41,24,09,256,,21,07,300,13,17,04,131,37*7D
$GPRMC,212905.000,A,5454.0708,N,00948.5436,E,0.08,312.01,061017,,,A*65
$GPVTG,312.01,T,,M,0.08,N,0.14,K,A*31
$GPGGA,212906.000,5454.0708,N,00948.5436,E,1,5,2.69,3.9,M,44.6,M,,*58
$GPGLL,5454.0708,N,00948.5436,E,212906.000,A,A*59
$GPGSA,A,3,08,30,07,28,15,,,,,,,,4.04,2.69,3.02*0C
$GPGSV,3,1,12,13,82,255,23,28,58,096,37,15,49,290,37,20,41,258,22*71
$GPGSV,3,2,12,30,39,076,28,05,27,202,23,18,14,324,,08,12,025,38*76
$GPGSV,3,3,12,07,09,075,41,24,09,256,,21,07,300,15,17,04,131,38*74
$GPRMC,212906.000,A,5454.0708,N,00948.5436,E,0.07,329.40,061017,,,A*64
$GPVTG,329.40,T,,M,0.07,N,0.13,K,A*34
$GPGGA,212907.000,5454.0708,N,00948.5436,E,1,5,2.69,3.9,M,44.6,M,,*59
$GPGLL,5454.0708,N,00948.5436,E,212907.000,A,A*58
$GPGSA,A,3,08,30,07,28,15,,,,,,,,4.04,2.69,3.02*0C
$GPGSV,3,1,12,13,82,255,23,28,58,096,37,15,49,290,37,20,40,258,21*73
$GPGSV,3,2,12,30,39,076,27,05,27,202,23,18,14,324,,08,12,025,38*79
$GPGSV,3,3,12,07,09,075,40,24,09,256,,21,07,300,,17,04,131,38*71
$GPRMC,212907.000,A,5454.0708,N,00948.5436,E,0.07,324.82,061017,,,A*66
$GPVTG,324.82,T,,M,0.07,N,0.12,K,A*36
$GPGGA,212908.000,5454.0708,N,00948.5436,E,1,5,2.69,4.0,M,44.6,M,,*58
$GPGLL,5454.0708,N,00948.5436,E,212908.000,A,A*57
$GPGSA,A,3,08,30,07,28,15,,,,,,,,4.04,2.69,3.02*0C
$GPGSV,3,1,12,13,82,255,22,28,58,096,37,15,49,290,37,20,40,258,20*73
$GPGSV,3,2,12,30,39,076,20,05,27,202,22,18,14,324,,08,12,025,37*70
$GPGSV,3,3,12,07,09,075,40,24,09,256,,21,06,300,,17,04,131,38*70
$GPRMC,212908.000,A,5454.0708,N,00948.5436,E,0.04,323.56,061017,,,A*64
$GPVTG,323.56,T,,M,0.04,N,0.07,K,A*3F
$GPGGA,212909.000,5454.0708,N,00948.5436,E,1,5,2.69,4.0,M,44.6,M,,*59
$GPGLL,5454.0708,N,00948.5436,E,212909.000,A,A*56
$GPGSA,A,3,08,30,07,28,15,,,,,,,,4.04,2.69,3.01*0F
$GPGSV,3,1,12,13,82,255,21,28,58,096,37,15,49,290,37,20,40,258,19*7A
$GPGSV,3,2,12,30,39,076,20,05,27,202,21,18,14,324,,08,12,025,37*73
$GPGSV,3,3,12,07,09,075,40,24,09,256,,21,06,300,,17,04,131,38*70
$GPRMC,212909.000,A,5454.0708,N,00948.5436,E,0.03,313.88,061017,,,A*62
$GPVTG,313.88,T,,M,0.03,N,0.05,K,A*3A
$GPGGA,212910.000,5454.0708,N,00948.5435,E,1,5,2.69,4.1,M,44.6,M,,*53
$GPGLL,5454.0708,N,00948.5435,E,212910.000,A,A*5D
$GPGSA,A,3,08,30,07,28,15,,,,,,,,4.04,2.69,3.01*0F
$GPGSV,3,1,12,13,82,255,21,28,58,096,37,15,49,290,37,20,40,258,18*7B
$GPGSV,3,2,12,30,39,076,21,05,27,202,20,18,14,324,,08,12,025,37*73
$GPGSV,3,3,12,07,09,075,40,24,09,256,,21,06,300,,17,04,131,38*70
$GPRMC,212910.000,A,5454.0708,N,00948.5435,E,0.03,334.58,061017,,,A*61
$GPVTG,334.58,T,,M,0.03,N,0.06,K,A*31
$GPGGA,212911.000,5454.0708,N,00948.5435,E,1,5,2.69,4.1,M,44.6,M,,*52
$GPGLL,5454.0708,N,00948.5435,E,212911.000,A,A*5C
$GPGSA,A,3,08,30,07,28,15,,,,,,,,4.04,2.69,3.01*0F
$GPGSV,3,1,12,13,82,255,21,28,58,096,37,15,49,290,37,20,40,258,17*74
$GPGSV,3,2,12,30,39,076,23,05,27,202,20,18,14,324,,08,12,025,37*71
$GPGSV,3,3,12,24,10,256,,07,09,075,39,21,06,300,,17,04,131,38*76
$GPRMC,212911.000,A,5454.0708,N,00948.5435,E,0.01,332.80,061017,,,A*61
$GPVTG,332.80,T,,M,0.01,N,0.01,K,A*37
$GPGGA,212912.000,5454.0708,N,00948.5435,E,1,5,2.69,4.1,M,44.6,M,,*51
$GPGLL,5454.0708,N,00948.5435,E,212912.000,A,A*5F
$GPGSA,A,3,08,30,07,28,15,,,,,,,,4.04,2.69,3.01*0F
$GPGSV,3,1,12,13,82,255,20,28,58,096,37,15,49,290,37,20,40,258,16*74
$GPGSV,3,2,12,30,39,076,25,05,27,202,20,18,14,324,,08,12,025,37*77
$GPGSV,3,3,12,24,10,256,,07,09,075,39,21,06,300,,17,04,131,38*76
$GPRMC,212912.000,A,5454.0708,N,00948.5435,E,0.01,198.84,061017,,,A*64
$GPVTG,198.84,T,,M,0.01,N,0.01,K,A*31
$GPGGA,212913.000,5454.0708,N,00948.5435,E,1,5,2.69,4.2,M,44.6,M,,*53
$GPGLL,5454.0708,N,00948.5435,E,212913.000,A,A*5E
$GPGSA,A,3,08,30,07,28,15,,,,,,,,4.04,2.69,3.01*0F
$GPGSV,3,1,12,13,82,255,20,28,58,096,37,15,49,290,37,20,40,258,16*74
$GPGSV,3,2,12,30,39,076,26,05,27,202,20,18,14,324,,08,12,025,37*74
$GPGSV,3,3,12,24,10,256,,07,09,075,39,21,06,300,,17,04,131,38*76
$GPRMC,212913.000,A,5454.0708,N,00948.5435,E,0.02,321.54,061017,,,A*6B
$GPVTG,321.54,T,,M,0.02,N,0.04,K,A*3A
$GPGGA,212914.000,5454.0708,N,00948.5435,E,1,5,2.69,4.2,M,44.6,M,,*54
$GPGLL,5454.0708,N,00948.5435,E,212914.000,A,A*59
$GPGSA,A,3,08,30,07,28,15,,,,,,,,4.04,2.69,3.01*0F
$GPGSV,3,1,12,13,82,255,20,28,58,096,37,15,49,290,37,20,40,258,16*74
$GPGSV,3,2,12,30,39,076,27,05,27,202,20,18,14,324,,08,12,025,37*75
$GPGSV,3,3,12,24,10,256,,07,09,075,39,21,06,300,,17,04,131,38*76
$GPRMC,212914.000,A,5454.0708,N,00948.5435,E,0.01,21.33,061017,,,A*5D
$GPVTG,21.33,T,,M,0.01,N,0.02,K,A*0D
$GPGGA,212915.000,5454.0708,N,00948.5436,E,1,5,2.69,4.3,M,44.6,M,,*57
$GPGLL,5454.0708,N,00948.5436,E,212915.000,A,A*5B
$GPGSA,A,3,08,30,07,28,15,,,,,,,,4.04,2.69,3.01*0F
$GPGSV,3,1,12,13,82,255,20,28,58,095,37,15,49,290,37,20,40,258,16*77
$GPGSV,3,2,12,30,39,076,28,05,27,202,21,18,14,324,,08,12,025,37*7B
$GPGSV,3,3,12,24,10,256,,07,09,075,39,21,06,300,,17,04,131,38*76
$GPRMC,212915.000,A,5454.0708,N,00948.5436,E,0.02,87.87,061017,,,A*5F
$GPVTG,87.87,T,,M,0.02,N,0.05,K,A*0A
$GPGGA,212916.000,5454.0708,N,00948.5436,E,1,5,2.69,4.3,M,44.6,M,,*54
$GPGLL,5454.0708,N,00948.5436,E,212916.000,A,A*58
$GPGSA,A,3,08,30,07,28,15,,,,,,,,4.04,2.69,3.01*0F
$GPGSV,3,1,12,13,82,255,20,28,58,095,37,15,49,290,37,20,40,258,17*76
$GPGSV,3,2,12,30,39,076,29,05,27,202,22,18,14,324,,08,12,025,37*79
$GPGSV,3,3,12,24,10,256,,07,09,075,39,21,06,300,,17,04,131,38*76
$GPRMC,212916.000,A,5454.0708,N,00948.5436,E,0.03,145.98,061017,,,A*6C
$GPVTG,145.98,T,,M,0.03,N,0.06,K,A*39
$GPGGA,212917.000,5454.0708,N,00948.5436,E,1,5,2.69,4.4,M,44.6,M,,*52
$GPGLL,5454.0708,N,00948.5436,E,212917.000,A,A*59
$GPGSA,A,3,08,30,07,28,15,,,,,,,,4.03,2.69,3.01*08
$GPGSV,3,1,12,13,82,255,20,28,58,095,37,15,49,290,37,20,40,258,18*79
$GPGSV,3,2,12,30,39,076,30,05,27,202,22,18,14,324,,08,12,025,37*71
$GPGSV,3,3,12,24,10,256,,07,09,075,39,21,06,300,,17,04,131,38*76
$GPRMC,212917.000,A,5454.0708,N,00948.5436,E,0.04,124.23,061017,,,A*6D
$GPVTG,124.23,T,,M,0.04,N,0.07,K,A*38
$GPGGA,212918.000,5454.0708,N,00948.5436,E,1,5,2.69,4.4,M,44.6,M,,*5D
$GPGLL,5454.0708,N,00948.5436,E,212918.000,A,A*56
$GPGSA,A,3,08,30,07,28,15,,,,,,,,4.03,2.69,3.01*08
$GPGSV,3,1,12,13,82,255,20,28,58,095,37,15,49,290,37,20,40,258,19*78
$GPGSV,3,2,12,30,39,076,31,05,27,202,23,18,14,324,,08,12,025,36*70
$GPGSV,3,3,12,24,10,256,,07,09,075,39,21,06,300,,17,04,131,38*76
$GPRMC,212918.000,A,5454.0708,N,00948.5436,E,0.08,119.04,061017,,,A*65
$GPVTG,119.04,T,,M,0.08,N,0.14,K,A*3D
$GPGGA,212919.000,5454.0708,N,00948.5436,E,1,5,2.68,4.5,M,44.6,M,,*5C
$GPGLL,5454.0708,N,00948.5436,E,212919.000,A,A*57
$GPGSA,A,3,08,30,07,28,15,,,,,,,,4.03,2.68,3.01*09
$GPGSV,3,1,12,13,82,255,20,28,58,095,38,15,49,290,37,20,40,258,21*7C
$GPGSV,3,2,12,30,39,076,32,05,27,202,23,18,14,324,,08,12,025,36*73
$GPGSV,3,3,12,24,10,256,,07,09,075,39,21,06,300,,17,04,131,38*76
$GPRMC,212919.000,A,5454.0708,N,00948.5436,E,0.09,117.27,061017,,,A*6A
$GPVTG,117.27,T,,M,0.09,N,0.16,K,A*31
$GPGGA,212920.000,5454.0708,N,00948.5437,E,1,5,2.69,4.5,M,44.6,M,,*56
$GPGLL,5454.0708,N,00948.5437,E,212920.000,A,A*5C
$GPGSA,A,3,08,30,07,28,15,,,,,,,,4.03,2.69,3.01*08
$GPGSV,3,1,12,13,82,255,20,28,58,095,38,15,49,290,37,20,40,258,22*7F
$GPGSV,3,2,12,30,39,076,33,05,27,202,24,18,14,324,,08,12,025,35*76
$GPGSV,3,3,12,24,10,256,,07,09,075,39,21,06,300,,17,04,131,38*76
$GPRMC,212920.000,A,5454.0708,N,00948.5437,E,0.08,131.98,061017,,,A*60
$GPVTG,131.98,T,,M,0.08,N,0.15,K,A*33
$GPGGA,212921.000,5454.0708,N,00948.5437,E,1,5,2.69,4.6,M,44.6,M,,*54
$GPGLL,5454.0708,N,00948.5437,E,212921.000,A,A*5D
$GPGSA,A,3,08,30,07,28,15,,,,,,,,4.03,2.69,3.01*08
$GPGSV,3,1,12,13,82,255,20,28,58,095,38,15,49,290,37,20,40,258,22*7F
$GPGSV,3,2,12,30,39,076,33,05,27,202,25,18,14,324,,08,12,025,34*76
$GPGSV,3,3,12,24,10,256,,07,09,075,39,21,06,300,,17,04,131,38*76
$GPRMC,212921.000,A,5454.0708,N,00948.5437,E,0.11,126.46,061017,,,A*6C
$GPVTG,126.46,T,,M,0.11,N,0.20,K,A*38
$GPGGA,212922.000,5454.0708,N,00948.5438,E,1,5,2.69,4.6,M,44.6,M,,*58
$GPGLL,5454.0708,N,00948.5438,E,212922.000,A,A*51
$GPGSA,A,3,08,30,07,28,15,,,,,,,,4.03,2.69,3.01*08
$GPGSV,3,1,12,13,82,255,20,28,58,095,38,15,49,290,37,20,40,258,23*7E
$GPGSV,3,2,12,30,39,076,33,05,27,202,25,18,14,324,,08,12,025,34*76
$GPGSV,3,3,12,24,10,256,,07,09,075,39,21,06,300,,17,04,131,38*76
$GPRMC,212922.000,A,5454.0708,N,00948.5438,E,0.10,130.68,061017,,,A*6A
$GPVTG,130.68,T,,M,0.10,N,0.18,K,A*39
$GPGGA,212923.000,5454.0707,N,00948.5438,E,1,5,2.69,4.7,M,44.6,M,,*57
$GPGLL,5454.0707,N,00948.5438,E,212923.000,A,A*5F
$GPGSA,A,3,08,30,07,28,15,,,,,,,,4.03,2.69,3.00*09
$GPGSV,3,1,12,13,82,255,20,28,58,095,38,15,49,290,37,20,40,258,23*7E
$GPGSV,3,2,12,30,39,076,33,05,27,202,26,18,14,324,,08,12,025,34*75
$GPGSV,3,3,12,24,10,256,,07,09,075,39,21,06,300,,17,04,131,38*76
$GPRMC,212923.000,A,5454.0707,N,00948.5438,E,0.08,119.33,061017,,,A*68
$GPVTG,119.33,T,,M,0.08,N,0.14,K,A*39
$GPGGA,212924.000,5454.0707,N,00948.5438,E,1,5,2.68,4.8,M,44.6,M,,*5E
$GPGLL,5454.0707,N,00948.5438,E,212924.000,A,A*58
$GPGSA,A,3,08,30,07,28,15,,,,,,,,4.03,2.68,3.00*08
$GPGSV,3,1,12,13,82,255,19,28,58,095,38,15,49,290,37,20,40,258,23*74
$GPGSV,3,2,12,30,39,076,33,05,27,202,27,18,14,324,,08,12,025,34*74
$GPGSV,3,3,12,24,10,256,,07,09,075,39,21,06,300,,17,04,131,38*76
$GPRMC,212924.000,A,5454.0707,N,00948.5438,E,0.07,93.27,061017,,,A*56
$GPVTG,93.27,T,,M,0.07,N,0.14,K,A*00
$GPGGA,212925.000,5454.0707,N,00948.5439,E,1,5,2.68,4.8,M,44.6,M,,*5E
$GPGLL,5454.0707,N,00948.5439,E,212925.000,A,A*58
$GPGSA,A,3,08,30,07,28,15,,,,,,,,4.03,2.68,3.00*08
$GPGSV,3,1,12,13,82,255,19,28,58,095,38,15,49,290,37,20,40,258,24*73
$GPGSV,3,2,12,30,39,076,32,05,27,202,28,18,14,324,,08,12,025,33*7D
$GPGSV,3,3,12,24,10,256,,07,09,075,39,21,06,300,,17,04,131,38*76
$GPRMC,212925.000,A,5454.0707,N,00948.5439,E,0.06,78.40,061017,,,A*53
$GPVTG,78.40,T,,M,0.06,N,0.11,K,A*00
$GPGGA,212926.000,5454.0707,N,00948.5439,E,1,5,2.68,4.9,M,44.6,M,,*5C
$GPGLL,5454.0707,N,00948.5439,E,212926.000,A,A*5B
$GPGSA,A,3,08,30,07,28,15,,,,,,,,4.03,2.68,3.00*08
$GPGSV,3,1,12,13,82,255,19,28,58,095,38,15,49,290,37,20,40,258,24*73
$GPGSV,3,2,12,30,39,076,32,05,27,202,28,18,14,324,,08,12,025,32*7C
$GPGSV,3,3,12,24,10,256,,07,09,075,39,21,06,300,16,17,04,131,38*71
$GPRMC,212926.000,A,5454.0707,N,00948.5439,E,0.08,66.32,061017,,,A*54
$GPVTG,66.32,T,,M,0.08,N,0.15,K,A*00
$GPGGA,212927.000,5454.0708,N,00948.5439,E,1,5,2.69,4.9,M,44.6,M,,*53
$GPGLL,5454.0708,N,00948.5439,E,212927.000,A,A*55
$GPGSA,A,3,08,30,07,28,15,,,,,,,,4.03,2.69,3.00*09
$GPGSV,3,1,12,13,82,255,19,28,58,095,38,15,49,290,37,20,40,258,25*72
$GPGSV,3,2,12,30,39,076,32,05,27,202,28,18,14,324,,08,12,025,32*7C
$GPGSV,3,3,12,24,10,256,,07,09,075,39,21,06,300,17,17,04,131,38*70
$GPRMC,212927.000,A,5454.0708,N,00948.5439,E,0.07,62.39,061017,,,A*5A
$GPVTG,62.39,T,,M,0.07,N,0.13,K,A*06
$GPGGA,212928.000,5454.0708,N,00948.5440,E,1,5,2.68,5.0,M,44.6,M,,*5B
$GPGLL,5454.0708,N,00948.5440,E,212928.000,A,A*54
$GPGSA,A,3,08,30,07,28,15,,,,,,,,4.02,2.68,3.00*09
$GPGSV,3,1,12,13,82,255,19,28,58,095,38,15,49,290,37,20,40,258,25*72
$GPGSV,3,2,12,30,39,076,32,05,27,202,27,18,14,324,,08,12,025,32*73
$GPGSV,3,3,12,24,10,256,,07,09,075,39,21,06,300,17,17,04,131,38*70
$GPRMC,212928.000,A,5454.0708,N,00948.5440,E,0.08,51.20,061017,,,A*5C
$GPVTG,51.20,T,,M,0.08,N,0.15,K,A*07
$GPGGA,212929.000,5454.0708,N,00948.5440,E,1,5,2.69,5.1,M,44.6,M,,*5A
$GPGLL,5454.0708,N,00948.5440,E,212929.000,A,A*55
$GPGSA,A,3,08,30,07,28,15,,,,,,,,4.03,2.69,3.00*09
$GPGSV,3,1,12,13,82,255,20,28,58,095,38,15,49,290,37,20,40,258,25*78
$GPGSV,3,2,12,30,39,076,32,05,27,202,27,18,14,324,,08,12,025,32*73
$GPGSV,3,3,12,24,10,256,,07,09,075,39,21,06,300,16,17,04,131,38*71
$GPRMC,212929.000,A,5454.0708,N,00948.5440,E,0.10,35.11,061017,,,A*54
$GPVTG,35.11,T,,M,0.10,N,0.19,K,A*02
$GPGGA,212930.000,5454.0708,N,00948.5440,E,1,5,2.68,5.2,M,44.6,M,,*50
$GPGLL,5454.0708,N,00948.5440,E,212930.000,A,A*5D
$GPGSA,A,3,08,30,07,28,15,,,,,,,,4.02,2.68,3.00*09
$GPGSV,3,1,12,13,82,255,21,28,58,095,38,15,49,290,37,20,40,258,26*7A
$GPGSV,3,2,12,30,39,076,32,05,27,202,27,18,14,324,,08,12,025,32*73
$GPGSV,3,3,12,24,10,256,,07,09,075,39,21,06,300,16,17,04,131,38*71
$GPRMC,212930.000,A,5454.0708,N,00948.5440,E,0.09,37.02,061017,,,A*54
$GPVTG,37.02,T,,M,0.09,N,0.17,K,A*04
$GPGGA,212931.000,5454.0708,N,00948.5441,E,1,6,1.82,5.2,M,44.6,M,,*54
$GPGLL,5454.0708,N,00948.5441,E,212931.000,A,A*5D
$GPGSA,A,3,08,30,07,28,20,15,,,,,,,2.89,1.82,2.25*0F
$GPGSV,3,1,12,13,82,255,21,28,58,095,38,15,49,290,37,20,40,258,26*7A
$GPGSV,3,2,12,30,39,076,32,05,27,202,27,18,14,324,,08,12,025,31*70
$GPGSV,3,3,12,24,10,256,,07,09,075,39,21,06,300,15,17,04,131,38*72
$GPRMC,212931.000,A,5454.0708,N,00948.5441,E,0.12,22.18,061017,,,A*51
$GPVTG,22.18,T,,M,0.12,N,0.22,K,A*07
$GPGGA,212932.000,5454.0709,N,00948.5441,E,1,6,1.82,5.3,M,44.6,M,,*57
$GPGLL,5454.0709,N,00948.5441,E,212932.000,A,A*5F
$GPGSA,A,3,08,30,07,28,20,15,,,,,,,2.89,1.82,2.25*0F
$GPGSV,3,1,12,13,82,255,21,28,58,095,38,15,49,290,37,20,40,258,25*79
$GPGSV,3,2,12,30,39,076,32,05,27,202,27,18,14,324,,08,12,025,30*71
$GPGSV,3,3,12,24,10,256,,07,09,075,38,21,06,300,14,17,04,131,38*72
$GPRMC,212932.000,A,5454.0709,N,00948.5441,E,0.11,32.18,061017,,,A*51
$GPVTG,32.18,T,,M,0.11,N,0.21,K,A*06
$GPGGA,212933.000,5454.0709,N,00948.5441,E,1,6,1.82,5.4,M,44.6,M,,*51
$GPGLL,5454.0709,N,00948.5441,E,212933.000,A,A*5E
$GPGSA,A,3,08,30,07,28,20,15,,,,,,,2.89,1.82,2.25*0F
$GPGSV,3,1,12,13,82,255,21,28,58,095,38,15,49,290,37,20,40,258,25*79
$GPGSV,3,2,12,30,39,076,32,05,27,202,26,18,14,324,,08,12,025,30*70
$GPGSV,3,3,12,24,10,256,,07,09,075,38,21,06,300,14,17,04,131,38*72
$GPRMC,212933.000,A,5454.0709,N,00948.5441,E,0.11,19.62,061017,,,A*54
$GPVTG,19.62,T,,M,0.11,N,0.21,K,A*02
$GPGGA,212934.000,5454.0709,N,00948.5441,E,1,6,1.82,5.5,M,44.6,M,,*57
$GPGLL,5454.0709,N,00948.5441,E,212934.000,A,A*59
$GPGSA,A,3,08,30,07,28,20,15,,,,,,,2.89,1.82,2.25*0F
$GPGSV,3,1,12,13,82,255,21,28,58,095,38,15,49,290,37,20,40,258,24*78
$GPGSV,3,2,12,30,39,076,31,05,27,202,26,18,14,324,,08,12,025,29*7B
$GPGSV,3,3,12,24,10,256,,07,09,075,38,21,06,300,14,17,04,131,38*72
$GPRMC,212934.000,A,5454.0709,N,00948.5441,E,0.09,21.30,061017,,,A*56
$GPVTG,21.30,T,,M,0.09,N,0.17,K,A*02
$GPGGA,212935.000,5454.0709,N,00948.5442,E,1,6,1.82,5.5,M,44.6,M,,*55
$GPGLL,5454.0709,N,00948.5442,E,212935.000,A,A*5B
$GPGSA,A,3,08,30,07,28,20,15,,,,,,,2.89,1.82,2.25*0F
$GPGSV,3,1,12,13,82,253,21,28,58,095,38,15,49,290,36,20,40,258,23*78
$GPGSV,3,2,12,30,39,076,30,05,27,202,25,18,14,324,,08,12,025,29*79
$GPGSV,3,3,12,24,10,256,,07,09,075,38,21,06,300,15,17,04,131,38*73
$GPRMC,212935.000,A,5454.0709,N,00948.5442,E,0.11,8.75,061017,,,A*67
$GPVTG,8.75,T,,M,0.11,N,0.21,K,A*34
$GPGGA,212936.000,5454.0710,N,00948.5442,E,1,6,1.82,5.6,M,44.6,M,,*5D
$GPGLL,5454.0710,N,00948.5442,E,212936.000,A,A*50
$GPGSA,A,3,08,30,07,28,20,15,,,,,,,2.89,1.82,2.24*0E
$GPGSV,3,1,12,13,82,253,20,28,58,095,38,15,49,290,36,20,40,258,22*78
$GPGSV,3,2,12,30,39,076,30,05,27,202,25,18,14,324,,08,12,025,29*79
$GPGSV,3,3,12,24,10,256,,07,09,075,37,21,06,300,15,17,04,131,38*7C
$GPRMC,212936.000,A,5454.0710,N,00948.5442,E,0.12,5.77,061017,,,A*60
$GPVTG,5.77,T,,M,0.12,N,0.23,K,A*3A
$GPGGA,212937.000,5454.0710,N,00948.5442,E,1,6,1.81,5.7,M,44.6,M,,*5E
$GPGLL,5454.0710,N,00948.5442,E,212937.000,A,A*51
$GPGSA,A,3,08,30,07,28,20,15,,,,,,,2.89,1.81,2.24*0D
$GPGSV,3,1,12,13,82,253,19,28,58,095,38,15,49,290,36,20,40,258,22*72
$GPGSV,3,2,12,30,39,076,29,05,27,202,25,18,14,324,,08,12,025,29*71
$GPGSV,3,3,12,24,10,256,,07,09,075,37,21,06,300,14,17,04,131,38*7D
$GPRMC,212937.000,A,5454.0710,N,00948.5442,E,0.17,12.18,061017,,,A*5B
$GPVTG,12.18,T,,M,0.17,N,0.32,K,A*00
$GPGGA,212938.000,5454.0711,N,00948.5442,E,1,6,1.82,5.8,M,44.6,M,,*5C
$GPGLL,5454.0711,N,00948.5442,E,212938.000,A,A*5F
$GPGSA,A,3,08,30,07,28,20,15,,,,,,,2.89,1.82,2.24*0E
$GPGSV,3,1,12,13,82,253,18,28,58,095,38,15,49,290,36,20,40,258,22*73
$GPGSV,3,2,12,30,39,076,29,05,27,202,25,18,14,324,,08,12,025,30*79
$GPGSV,3,3,12,24,10,256,,07,09,075,37,21,06,300,14,17,04,131,38*7D
$GPRMC,212938.000,A,5454.0711,N,00948.5442,E,0.18,10.73,061017,,,A*55
$GPVTG,10.73,T,,M,0.18,N,0.33,K,A*01
$GPGGA,212939.000,5454.0711,N,00948.5442,E,1,6,1.81,5.9,M,44.6,M,,*5F
$GPGLL,5454.0711,N,00948.5442,E,212939.000,A,A*5E
$GPGSA,A,3,08,30,07,28,20,15,,,,,,,2.88,1.81,2.24*0C
$GPGSV,3,1,12,13,82,253,18,28,58,095,38,15,49,290,36,20,40,258,22*73
$GPGSV,3,2,12,30,39,076,29,05,27,202,25,18,14,324,,08,12,025,30*79
$GPGSV,3,3,12,24,10,256,,07,09,075,37,21,06,300,14,17,04,131,38*7D
$GPRMC,212939.000,A,5454.0711,N,00948.5442,E,0.19,19.77,061017,,,A*58
$GPVTG,19.77,T,,M,0.19,N,0.35,K,A*0B
$GPGGA,212940.000,5454.0712,N,00948.5443,E,1,6,1.81,6.0,M,44.6,M,,*59
$GPGLL,5454.0712,N,00948.5443,E,212940.000,A,A*52
$GPGSA,A,3,08,30,07,28,20,15,,,,,,,2.88,1.81,2.24*0C
$GPGSV,3,1,12,13,82,253,17,28,58,095,38,15,49,290,36,20,40,258,22*7C
$GPGSV,3,2,12,30,39,076,30,05,27,202,25,18,14,324,,08,12,025,30*71
$GPGSV,3,3,12,24,10,256,,07,09,075,37,21,06,300,,17,04,131,38*78
$GPRMC,212940.000,A,5454.0712,N,00948.5443,E,0.20,18.84,061017,,,A*53
$GPVTG,18.84,T,,M,0.20,N,0.37,K,A*0E
$GPGGA,212941.000,5454.0712,N,00948.5443,E,1,6,1.81,6.0,M,44.6,M,,*58
$GPGLL,5454.0712,N,00948.5443,E,212941.000,A,A*53
$GPGSA,A,3,08,30,07,28,20,15,,,,,,,2.88,1.81,2.24*0C
$GPGSV,3,1,12,13,82,253,16,28,58,095,38,15,49,290,36,20,40,258,21*7E
$GPGSV,3,2,12,30,39,076,30,05,27,202,25,18,14,324,,08,12,025,30*71
$GPGSV,3,3,12,24,10,256,,07,09,075,37,21,06,300,,17,04,131,38*78
$GPRMC,212941.000,A,5454.0712,N,00948.5443,E,0.19,19.92,061017,,,A*5E
$GPVTG,19.92,T,,M,0.19,N,0.36,K,A*03
$GPGGA,212942.000,5454.0713,N,00948.5443,E,1,6,1.82,6.1,M,44.6,M,,*58
$GPGLL,5454.0713,N,00948.5443,E,212942.000,A,A*51
$GPGSA,A,3,08,30,07,28,20,15,,,,,,,2.88,1.82,2.24*0F
$GPGSV,3,1,12,13,82,253,16,28,58,095,38,15,49,290,36,20,40,257,22*72
$GPGSV,3,2,12,30,39,076,30,05,27,202,25,18,14,324,,08,12,025,29*79
$GPGSV,3,3,12,24,10,256,,07,09,075,37,21,06,300,,17,04,131,38*78
$GPRMC,212942.000,A,5454.0713,N,00948.5443,E,0.20,21.39,061017,,,A*5C
$GPVTG,21.39,T,,M,0.20,N,0.37,K,A*02
$GPGGA,212943.000,5454.0713,N,00948.5444,E,1,6,1.81,6.2,M,44.6,M,,*5E
$GPGLL,5454.0713,N,00948.5444,E,212943.000,A,A*57
$GPGSA,A,3,08,30,07,28,20,15,,,,,,,2.88,1.81,2.24*0C
$GPGSV,3,1,12,13,82,253,15,28,58,095,38,15,49,290,36,20,40,257,22*71
$GPGSV,3,2,12,30,39,076,30,05,27,202,25,18,14,324,,08,12,025,29*79
$GPGSV,3,3,12,24,10,256,,07,09,075,38,21,06,300,,17,04,131,38*77
$GPRMC,212943.000,A,5454.0713,N,00948.5444,E,0.20,20.05,061017,,,A*54
$GPVTG,20.05,T,,M,0.20,N,0.38,K,A*03
$GPGGA,212944.000,5454.0714,N,00948.5444,E,1,6,1.81,6.3,M,44.6,M,,*5F
$GPGLL,5454.0714,N,00948.5444,E,212944.000,A,A*57
$GPGSA,A,3,08,30,07,28,20,15,,,,,,,2.88,1.81,2.24*0C
$GPGSV,3,1,12,13,82,253,15,28,58,095,38,15,49,290,36,20,40,257,22*71
$GPGSV,3,2,12,30,39,076,30,05,27,202,26,18,14,324,,08,12,025,28*7B
$GPGSV,3,3,12,24,10,256,,07,09,075,38,21,06,300,,17,04,131,38*77
$GPRMC,212944.000,A,5454.0714,N,00948.5444,E,0.20,23.85,061017,,,A*5F
$GPVTG,23.85,T,,M,0.20,N,0.37,K,A*07
$GPGGA,212945.000,5454.0714,N,00948.5445,E,1,6,1.81,6.4,M,44.6,M,,*58
$GPGLL,5454.0714,N,00948.5445,E,212945.000,A,A*57
$GPGSA,A,3,08,30,07,28,20,15,,,,,,,2.88,1.81,2.24*0C
$GPGSV,3,1,12,13,82,253,14,28,58,095,38,15,49,290,36,20,40,257,22*70
$GPGSV,3,2,12,30,39,076,31,05,27,202,27,18,14,324,,08,12,025,28*7B
$GPGSV,3,3,12,24,10,256,,07,09,075,39,21,06,300,,17,04,131,38*76
$GPRMC,212945.000,A,5454.0714,N,00948.5445,E,0.20,25.22,061017,,,A*54
$GPVTG,25.22,T,,M,0.20,N,0.38,K,A*03
$GPGGA,212946.000,5454.0715,N,00948.5445,E,1,6,1.81,6.5,M,44.6,M,,*5B
$GPGLL,5454.0715,N,00948.5445,E,212946.000,A,A*55
$GPGSA,A,3,08,30,07,28,20,15,,,,,,,2.88,1.81,2.24*0C
$GPGSV,3,1,12,13,82,253,13,28,58,095,38,15,49,290,36,20,40,257,23*76
$GPGSV,3,2,12,30,39,076,32,05,27,202,27,18,14,324,,08,12,025,27*77
$GPGSV,3,3,12,24,10,256,,07,09,075,39,21,06,300,,17,04,131,38*76
$GPRMC,212946.000,A,5454.0715,N,00948.5445,E,0.22,28.69,061017,,,A*56
$GPVTG,28.69,T,,M,0.22,N,0.41,K,A*0D
$GPGGA,212947.000,5454.0715,N,00948.5446,E,1,6,1.81,6.6,M,44.6,M,,*5A
$GPGLL,5454.0715,N,00948.5446,E,212947.000,A,A*57
$GPGSA,A,3,08,30,07,28,20,15,,,,,,,2.88,1.81,2.24*0C
$GPGSV,3,1,12,13,82,253,13,28,58,095,38,15,49,290,36,20,40,257,23*76
$GPGSV,3,2,12,30,39,076,33,05,27,202,27,18,14,324,,08,12,025,26*77
$GPGSV,3,3,12,24,10,256,,07,09,075,40,21,06,300,17,17,04,131,38*7E
$GPRMC,212947.000,A,5454.0715,N,00948.5446,E,0.24,32.18,061017,,,A*5F
$GPVTG,32.18,T,,M,0.24,N,0.44,K,A*03
$GPGGA,212948.000,5454.0716,N,00948.5447,E,1,6,1.81,6.7,M,44.6,M,,*56
$GPGLL,5454.0716,N,00948.5447,E,212948.000,A,A*5A
$GPGSA,A,3,08,30,07,28,20,15,,,,,,,2.88,1.81,2.24*0C
$GPGSV,3,1,12,13,82,253,14,28,58,095,38,15,49,290,36,20,40,257,23*71
$GPGSV,3,2,12,30,39,076,33,05,27,202,27,18,14,324,,08,12,025,26*77
$GPGSV,3,3,12,24,10,256,,07,09,075,40,21,06,300,16,17,04,131,38*7F
$GPRMC,212948.000,A,5454.0716,N,00948.5447,E,0.26,32.51,061017,,,A*5D
$GPVTG,32.51,T,,M,0.26,N,0.48,K,A*00
$GPGGA,212949.000,5454.0716,N,00948.5447,E,1,6,1.81,6.8,M,44.6,M,,*58
$GPGLL,5454.0716,N,00948.5447,E,212949.000,A,A*5B
$GPGSA,A,3,08,30,07,28,20,15,,,,,,,2.88,1.81,2.24*0C
$GPGSV,3,1,12,13,82,253,14,28,58,095,38,15,49,290,36,20,40,257,23*71
$GPGSV,3,2,12,30,39,076,34,05,27,202,27,18,14,324,,08,12,025,26*70
$GPGSV,3,3,12,24,10,256,,07,09,075,41,21,06,300,15,17,04,131,38*7D
$GPRMC,212949.000,A,5454.0716,N,00948.5447,E,0.27,37.89,061017,,,A*5D
